RENTREE,UAI,DT_OUVERTURE,DT_FERMETURE,TYPE,SECTEUR,NOM,COMMUNE,result_label,TELEPHONE,FAX,EMAIL,SITE_INTERNET,ZAP,PRINCIPAL,PRINCIPAL_ADJOINT,GESTIONNAIRE,POLITIQUE_VILLE,FL_ULIS,FL_SEGPA,FL_SECTION_INTERNATIONALE,FL_SECTION_EURO,FL_SECTION_ORIENTALE,FL_SECTION_SPORTIVE,FL_SECTION_BILANGUE,ULIS,SEGPA,SECTION_INTERNATIONALE,SECTION_EURO,SECTION_ORIENTALE,SECTION_SPORTIVE,SECTION_BILANGUE,DATE_MAJ,EFFECTIF_ANNEE_N1,EFFECTIF_ANNEE_N2,EFFECTIF_ANNEE_N3,EFFECTIF_ANNEE_N4,EFFECTIF_ANNEE_N5,latitude,longitude
2014,0332342S,13-02-1976,,CLG,public,Collège Cantelande,CESTAS,1 Chemin des Sources 33610 Cestas,05 56 07 61 69,05 56 36 35 78,ce.0332342S@ac-bordeaux.fr,http://www.cantelande.over-blog.com,TALENCE,MME LACOMBE,M. CONSTANTIN,M. HIVET,,0,0,0,1,0,0,1,,,,70,,,36,29-05-2015,850,899,869,840,848,44.758089,-0.688267
2014,0332343T,13-02-1976,,CLG,public,Collège Montesquieu,LA BREDE,14 Avenue Édouard Capdeville 33650 La Brède,05 56 20 21 14,05 57 97 79 41,ce.0332343T@ac-bordeaux.fr,http://www.college-montesquieu.fr,TALENCE,M. BIDOT,M. ALBAREIL,M. VAYNE,,0,0,0,1,0,0,0,,,,115,,,,29-05-2015,698,707,744,731,733,44.684326,-0.529567
2014,0332347X,08-04-1976,,CLG,public,Collège Sébastien Vauban,BLAYE,9 Rue du Docteur Boutin 33390 Blaye,05 57 42 04 00,05 57 42 04 00,ce.0332347X@ac-bordeaux.fr,http://webetab.ac-bordeaux.fr/Etablissement/CVauban/,BLAYE,M. THEBAULT,MME BAYLE,MME CAUDMONT,,1,1,0,1,0,1,1,13,94,,47,,39,26,29-05-2015,583,574,569,580,603,45.124644,-0.658064
2014,0332437V,01-09-1978,,CLG,public,Collège Emile Zola,LE HAILLAN,19 Rue de Los Héros 33185 Le Haillan,05 56 28 08 29,05 56 28 49 23,ce.0332437V@ac-bordeaux.fr,http://www.clg-ezola.fr,BORDEAUX NORD,M. BATIFOULIE,MME BERNON,M. LAUNAY,,0,0,0,1,0,1,0,,,,40,,16,,29-05-2015,623,578,576,596,567,44.871066,-0.672981
2014,0332486Y,01-09-1980,,CLG,privé sous contrat,Collège privé Sainte Claire,FLOIRAC,Avenue Hubert Dubedout 33270 Floirac,05 56 86 22 82,05 56 40 86 95,ce.0332486Y@ac-bordeaux.fr,http://www.steclaire.org,BORDEAUX RIVE DROITE,,,MME VIAL,,1,0,0,0,0,0,0,4,,,,,,,29-05-2015,490,498,482,462,451,44.846853,-0.513814
2014,0332487Z,01-09-1980,,CLG,privé sous contrat,Collège privé Saint Elme,ARCACHON,50 Boulevard Deganne 33120 Arcachon,05 56 54 92 23,05 56 54 88 05,ce.0332487Z@ac-bordeaux.fr,stelme.fr,ARCACHON,,,,,0,0,0,1,0,0,0,,,,60,,,,29-05-2015,480,473,484,468,471,44.655379,-1.152582
2014,0332488A,01-09-1980,,CLG,privé sous contrat,Collège privé Saint Joseph de Tivoli,BORDEAUX,40 Avenue d'Eysines 33200 Bordeaux,05 56 08 04 40,05 56 02 05 50,ce.0332488A@ac-bordeaux.fr,www.tivoli-33.org,BORDEAUX NORD,,MME KITIASCHVILI,M. MEZERGUE,,1,0,0,1,0,0,1,12,,,118,,,1,29-05-2015,961,918,982,995,970,44.853854,-0.597092
2014,0332489B,01-09-1980,,CLG,privé sous contrat,Collège privé Notre-Dame,BORDEAUX,45 Rue du Palais Gallien 33000 Bordeaux,05 56 00 69 00,05 56 48 09 49,ce.0332489B@ac-bordeaux.fr,www.notredamebordeaux.com,BORDEAUX NORD,,,MME LAMARCHE,,0,0,0,1,0,0,0,,,,24,,,,29-05-2015,208,227,234,268,246,44.843387,-0.582213
2014,0332490C,01-09-1980,,CLG,privé sous contrat,Collège privé Saint Genès,BORDEAUX,160 Rue Saint-Gènes 33000 Bordeaux,05 56 33 84 84,05 56 33 84 85,ce.0332490C@ac-bordeaux.fr,www.saint-genes.com,BORDEAUX SUD,,,M. FEDOU,,0,0,0,1,0,0,0,,,,120,,,,29-05-2015,1174,1198,1182,1203,1171,44.824808,-0.58144
2014,0332491D,01-09-1980,,CLG,privé sous contrat,Collège privé Albert Le Grand,BORDEAUX,189 Rue Saint-Gènes 33000 Bordeaux,05 56 96 38 62,05 56 96 71 65,ce.0332491D@ac-bordeaux.fr,http://albert-le-grand.com,BORDEAUX SUD,,,,,0,0,0,0,0,0,0,,,,,,,,29-05-2015,111,119,151,161,187,44.823937,-0.581962
2014,0332492E,01-10-1980,,CLG,privé sous contrat,Collège privé Sainte Marie Bastide,BORDEAUX,45 Rue de Dijon 33100 Bordeaux,05 57 80 12 00,05 57 80 12 02,ce.0332492E@ac-bordeaux.fr,www.smb33.fr,BORDEAUX RIVE DROITE,,,,,0,0,0,1,0,0,0,,,,47,,,,29-05-2015,717,714,716,714,671,44.842537,-0.552739
2014,0332493F,01-09-1980,,CLG,privé sous contrat,Collège privé Sainte Marie Grand Lebrun,BORDEAUX,164 Avenue Charles de Gaulle 33200 Bordeaux,05 56 08 32 13,05 56 02 22 25,ce.0332493F@ac-bordeaux.fr,http:/www.grandlebrun.com,BORDEAUX NORD,,,,,1,0,0,1,0,0,0,12,,,134,,,,29-05-2015,1024,1059,1034,1046,1026,44.850497,-0.606207
2014,0332494G,01-09-1980,,CLG,privé sous contrat,Collège privé Rambaud,LA BREDE,25 Avenue de Rambaud 33650 La Brède,05 57 97 17 17,05 57 97 17 10,ce.0332494G@ac-bordeaux.fr,http://www.rambaud33.com,TALENCE,,,,,0,0,0,1,0,0,1,,,,45,,,50,29-05-2015,501,496,466,446,433,44.668342,-0.505718
2014,0332569N,01-09-1982,,CLG,public,Collège Porte du Médoc,PAREMPUYRE,1 Avenue des Sports 33290 Parempuyre,05 56 57 09 25,05 56 35 67 67,ce.0332569N@ac-bordeaux.fr,http://webetab.ac-bordeaux.fr/college-parempuyre/,BORDEAUX NORD,M. GUISON,MME JACOMET,M. CLEMENS,,0,0,0,1,0,0,1,,,,58,,,13,29-05-2015,708,706,734,735,719,44.94696,-0.60058
2014,0332657J,01-09-1984,,CLG,public,Collège Jean Cocteau,LEGE CAP FERRET,52 BIS Avenue de la Mairie 33950 Lège-Cap-Ferret,05 56 03 99 03,05 56 03 99 04,ce.0332657J@ac-bordeaux.fr,http://webetab.ac-bordeaux.fr/college-cap-ferret,ARCACHON,M. BOIREAU,MME CARRUESCO,M. RAVON,,0,0,0,1,0,1,1,,,,44,,46,48,29-05-2015,497,535,563,572,547,44.792627,-1.146411
2014,0332704K,01-09-1985,,CLG,public,Collège d'Arsac,ARSAC,Allée de Panchon 33460 Arsac,05 56 58 85 30,05 56 58 85 30,ce.0332704K@ac-bordeaux.fr,http://webetab.ac-bordeaux.fr/Etablissement/CArsac/,MEDOC,MME AGUIRRE-LEROY,MME ELDIN,MME VILLENEUVE,,0,0,0,0,0,0,0,,,,,,,,29-05-2015,647,640,611,594,555,44.988941,-0.693781
2014,0332705L,01-09-1985,,CLG,public,Collège François Mauriac,SAINTE EULALIE,33 Rue du Professeur Georges Portmann 33560 Sainte-Eulalie,05 56 38 07 06,05 56 06 95 02,ce.0332705L@ac-bordeaux.fr,,BORDEAUX RIVE DROITE,MME DOSDAT,MME LATOUR,MME TAPIE,,1,0,0,0,0,0,0,12,,,,,,,29-05-2015,419,418,448,462,456,44.902475,-0.472231
2014,0332706M,01-09-1985,,CLG,public,Collège Léo Drouyn,VERAC,1 Tour de Vérac 33240 Vérac,05 57 84 43 52,05 57 84 43 52,ce.0332706M@ac-bordeaux.fr,http://clgdrouyn.fr/spip/index.php,LIBOURNE,M. CAPDEVIELLE,MME LARTIGUE,MME ECHEVERRIA,,0,0,0,0,0,0,1,,,,,,,52,29-05-2015,637,635,624,562,490,44.992086,-0.339968
2014,0332723F,01-09-1986,,CLG,public,Collège Emile Durkheim,PEUJARD,6 La Michère 33240 Peujard,05 57 94 02 60,05 57 68 03 95,ce.0332723F@ac-bordeaux.fr,http://webetab.ac-bordeaux.fr/Etablissement/CDurkheimPeujard/,BLAYE,MME LE BOUHELLEC,M. DRUELLE,MME LEGENDRE,,0,0,0,0,0,0,0,,,,,,,,29-05-2015,574,571,523,476,410,45.043746,-0.422177
2014,0332743C,01-09-1987,,CLG,public,Collège Aliénor d'Aquitaine,MARTIGNAS SUR JALLE,77 Avenue des Sapinettes 33127 Martignas-sur-Jalle,05 56 78 07 27,05 56 78 64 47,ce.0332743C@ac-bordeaux.fr,http://webetab.ac-bordeaux.fr/clgalienoraquitainemartignas/,MERIGNAC PESSAC,MME SALABERRY,,MME LIEVAL,,0,0,0,1,0,0,1,,,,21,,,20,29-05-2015,414,427,417,407,397,44.84582,-0.78139
2014,0332746F,01-09-1987,,CLG,public,Collège Emile Combes,BORDEAUX,76 Rue Émile Combes 33000 Bordeaux,05 56 24 94 95,05 56 90 18 80,ce.0332746F@ac-bordeaux.fr,http://webetab.ac-bordeaux.fr/college-emile-combes/,BORDEAUX SUD,M. BOULAGNON,,MME DEL CORTE,,0,0,0,1,0,0,0,,,,59,,,,29-05-2015,436,430,394,378,396,44.834802,-0.609937
2014,0332768E,01-09-1988,,CLG,public,Collège Aliénor d'Aquitaine,BORDEAUX,16 Rue du Domaine Devienne 33800 Bordeaux,05 56 91 42 43,05 56 33 07 17,ce.0332768E@ac-bordeaux.fr,http://www.alienor-bordeaux.fr,BORDEAUX SUD,MME GERVAIS,M. ROUBICHOU,MME PEROUCHINE,,1,0,0,1,0,1,1,13,,,20,,33,55,29-05-2015,698,695,720,694,642,44.829357,-0.560644
2014,0332806W,01-10-1990,,CLG,privé sous contrat,Collège privé Le Mirail,BORDEAUX,61 Cours de la Somme 33800 Bordeaux,05 57 95 06 80,05 57 95 06 84,ce.0332806W@ac-bordeaux.fr,lemirail.es.free.fr,BORDEAUX SUD,,,,,1,0,0,1,0,0,1,13,,,41,,,25,29-05-2015,308,323,303,260,251,44.828079,-0.572447
2014,0332934K,01-09-1996,,CLG,public,Collège de Pian Sur Garonne,LE PIAN SUR GARONNE,Lalieyre Nord 33490 Le Pian-sur-Garonne,05 57 98 11 50,05 56 76 84 33,ce.0332934K@ac-bordeaux.fr,http://webetab.ac-bordeaux.fr/Etablissement/CPianSurGaronne/,SUD GIRONDE,MME BLATEAU-GAUZERE,,M. PROVOST,,0,0,0,0,0,0,1,,,,,,,26,29-05-2015,510,475,471,456,428,44.570257,-0.228972
2014,0332982M,01-09-1998,,CLG,public,Collège Val des Pins,LE TEICH,Avenue François Mitterrand 33470 Le Teich,05 57 52 33 33,05 57 52 33 30,ce.0332982M@ac-bordeaux.fr,https://educhorus.net/teich,ARCACHON,M. CHAMOULAUD,MME BENAMZA,MME SAINT-RAMON,,0,0,0,1,0,0,0,,,,32,,,,29-05-2015,610,643,645,657,643,44.623857,-1.02669
2014,0333093H,01-09-2003,,CLG,public,Collège Léonard de Vinci,SAINT AUBIN DE MEDOC,Saint-Aubin-de-Médoc,05 56 57 48 30,05 56 57 48 30,ce.0333093H@ac-bordeaux.fr,http://collegeleonarddevinci.ac-bordeaux.fr/,BORDEAUX NORD,M. FERRER,MME LE THI,MME BERTRAND FUHRER,,0,0,0,0,0,0,0,,,,,,,,29-05-2015,633,636,632,662,657,44.911245,-0.726476
2014,0330008E,01-05-1965,,CLG,public,Collège Jean Verdier,AUDENGE,Rue des Cigales 33980 Audenge,05 57 76 28 28,05 57 76 28 28,ce.0330008E@ac-bordeaux.fr,http://www.jverdier.org/,ARCACHON,MME DUYCK,MME MARTINEAU,MME MAHIEU,,0,0,0,0,0,0,0,,,,,,,,29-05-2015,565,544,560,539,519,44.686272,-1.005498
2014,0332082J,23-02-1972,,CLG,public,Collège Edouard Vaillant,BORDEAUX,Cours du Raccordement 33300 Bordeaux,05 56 39 62 76,05 56 39 63 20,ce.0332082J@ac-bordeaux.fr,http://webetab.ac-bordeaux.fr/college-edouard-vaillant,BORDEAUX NORD,M. CANOT,M. MARMIESSE,MME LAURENT,,0,0,0,1,0,1,1,,,,51,,57,60,29-05-2015,349,354,379,471,471,44.865133,-0.56287
2014,0332084L,23-02-1972,,CLG,public,Collège Albert Camus,EYSINES,3 Rue Lucien Piet 33320 Eysines,05 56 28 06 69,05 56 28 62 70,ce.0332084L@ac-bordeaux.fr,http://webetab.ac-bordeaux.fr/college-albert-camus-eysines,BORDEAUX NORD,MME PEREZ,M. ALAVOINE,MME DERUY,,0,0,0,1,0,0,1,,,,81,,,33,29-05-2015,621,582,561,550,549,44.884648,-0.644176
2014,0332085M,23-02-1972,,CLG,public,Collège J. Auriac,ARVEYRES,4 Rue de Peytot 33500 Arveyres,05 57 24 80 99,05 57 24 86 74,ce.0332085M@ac-bordeaux.fr,http://www.collegejeanauriac.fr,LIBOURNE,MME SAINT ANDRE,MME DODIER,MME BOSSARD-PREVOST,,0,0,0,1,0,1,1,,,,50,,27,30,29-05-2015,616,614,594,572,536,44.883674,-0.284971
2014,0332090T,24-02-1972,,CLG,public,Collège Bourran,MERIGNAC,Rue Léo Lagrange 33700 Mérignac,05 56 97 82 93,05 56 97 82 93,ce.0332090T@ac-bordeaux.fr,http://college-bourran.fr/,MERIGNAC PESSAC,MME BATLLES,M. MOY,M. FAYE,,1,1,0,1,0,0,1,14,57,,42,,,69,29-05-2015,439,446,435,425,487,44.836709,-0.635195
2014,0332187Y,02-04-1973,,CLG,public,Collège Hastignan,SAINT MEDARD EN JALLES,86 Avenue Anatole France 33160 Saint-Médard-en-Jalles,05 56 05 13 97,05 56 70 02 23,ce.0332187Y@ac-bordeaux.fr,http://www.ac-bordeaux.fr/Etablissement/Hastignan,BORDEAUX NORD,M. GREZES,M. MAZOUAUD,MME BORDES,,1,1,0,1,0,0,1,13,82,,24,,,18,29-05-2015,841,836,811,810,827,44.892794,-0.745503
2014,0332189A,03-04-1973,,CLG,public,Collège Nelson Mandela,FLOIRAC,Avenue de la Libération 33270 Floirac,05 56 86 60 44,05 57 54 41 58,ce.0332189A@ac-bordeaux.fr,http://college.mandela.free.fr,BORDEAUX RIVE DROITE,M. MEGARD,,MME FERNANDES,Zone urbaine sensible (ZUS),0,0,0,1,0,0,1,,,,33,,,30,29-05-2015,398,360,253,207,203,44.839063,-0.532238
2014,0332190B,02-04-1973,,CLG,public,Collège Alfred Mauguin,GRADIGNAN,2 Avenue du Maréchal Juin 33170 Gradignan,05 56 89 07 19,05 56 89 07 19,ce.0332190B@ac-bordeaux.fr,http://webetab.ac-bordeaux.fr/etablissement/camauguin/,TALENCE,M. DERAMBURE,MME BAUDERON,MME BIAUX,,1,1,0,1,0,0,1,13,106,,19,,,41,29-05-2015,366,358,369,370,351,44.772812,-0.596681
2014,0332191C,02-04-1973,,CLG,public,Collège Gérard Philipe,PESSAC,38 Avenue Pierre Corneille 33600 Pessac,05 56 15 12 50,05 56 15 12 50,ce.0332191C@ac-bordeaux.fr,http://webetab.ac-bordeaux.fr/college-gerard-philipe-pessac/,MERIGNAC PESSAC,MME CHARLEMARTY,MME SAINT MACARY,M. JOUX,,1,1,0,1,0,0,0,14,108,,53,,,,29-05-2015,341,308,296,313,300,44.799119,-0.621383
2014,0332195G,14-05-1973,,CLG,public,Collège Victor Louis,TALENCE,52 Avenue de Thouars 33400 Talence,05 57 35 00 60,05 57 35 00 61,ce.0332195G@ac-bordeaux.fr,http://collegevictorlouis.fr.nf,TALENCE,M. SEYT,MME CASTAGNE,M. STAES,,1,0,0,1,0,1,0,13,,,38,,55,,29-05-2015,663,664,666,645,667,44.798953,-0.592376
2014,0332244K,02-05-1974,,CLG,public,Collège François Mauriac,LEOGNAN,21 Rue de la Ferme de Richemont 33850 Léognan,05 56 64 72 03,05 56 64 82 80,ce.0332244K@ac-bordeaux.fr,http://webetab.ac-bordeaux.fr/college-mauriac-leognan/,TALENCE,MME PHILIPPARIE,M. GOULPIER,M. BASTIEN,,0,0,0,0,0,0,0,,,,,,,,29-05-2015,627,635,627,599,576,44.729968,-0.590159
2014,0332246M,02-05-1974,,CLG,public,Collège Chambéry,VILLENAVE D ORNON,138 Route de Léognan 33140 Villenave-d'Ornon,05 56 87 74 85,05 56 87 74 88,ce.0332246M@ac-bordeaux.fr,http://webetab.ac-bordeaux.fr/college-chambery,BORDEAUX SUD,M. BARRAUD,M. HEBERT,M. SICARD,,1,1,0,0,0,0,1,13,71,,,,,46,29-05-2015,510,503,499,491,486,44.756305,-0.584608
2014,0332248P,02-05-1974,,CLG,public,Collège Paul Esquinance,LA REOLE,Au Port Mahon 33190 La Réole,05 56 61 11 40,05 56 61 11 40,ce.0332248P@ac-bordeaux.fr,http://cpelareole.fr/,SUD GIRONDE,MME SAUQUET,M. VANDENABEELE,MME DELETANG,,0,0,0,1,0,0,1,,,,21,,,100,29-05-2015,637,668,691,661,651,44.58414,-0.031599
2014,0332283C,08-04-1975,,CLG,public,Collège François Mitterrand,CREON,18 Boulevard de Verdun 33670 Créon,05 57 97 01 80,05 56 23 01 34,ce.0332283C@ac-bordeaux.fr,http://webetab.ac-bordeaux.fr/college-francois-mitterrand-creon/,BORDEAUX RIVE DROITE,MME DECOMBEROUSSE,MME ABALEA,MME OUDALOFF-BEVAN,,1,1,0,1,0,0,1,13,67,,120,,,44,29-05-2015,844,872,863,855,832,44.773533,-0.351432
2014,0332285E,14-09-1976,,CLG,public,Collège Jacques Ellul,BORDEAUX,2 Rue du Professeur Calmette 33100 Bordeaux,05 56 86 64 11,05 57 80 00 15,ce.0332285E@ac-bordeaux.fr,http://webetab.ac-bordeaux.fr/college-jacques-ellul,BORDEAUX RIVE DROITE,M. MERCIER,,MME RENARD,Zone urbaine sensible (ZUS),0,1,0,1,0,0,1,,51,,39,,,27,29-05-2015,237,243,246,229,215,44.844439,-0.541399
2014,0332288H,09-04-1975,,CLG,public,Collège Ausone,BAZAS,5 Avenue Franck Cazenave 33430 Bazas,05 56 25 00 24,05 56 25 25 08,ce.0332288H@ac-bordeaux.fr,http://webetab.ac-bordeaux.fr/college-ausone-bazas/,SUD GIRONDE,M. OLIVARES,M. PEROUMAL,MME WALTER,,1,1,0,0,0,0,1,13,54,,,,,49,29-05-2015,666,660,693,659,653,44.426896,-0.219328
2014,0332327A,10-05-1975,,CLG,privé sous contrat,Collège privé Saint Clément,CUDOS,Labeyrie 33430 Cudos,05 56 25 42 87,05 56 25 47 13,ce.0332327A@ac-bordeaux.fr,http://saintclement.com,SUD GIRONDE,,,,,0,0,0,0,0,0,0,,,,,,,,29-05-2015,215,213,204,181,145,44.392249,-0.214986
2014,0332340P,13-02-1976,,CLG,public,Collège Max Linder,SAINT LOUBES,15 Avenue de Cajus 33450 Saint-Loubès,05 56 20 40 40,05 56 20 42 67,ce.0332340P@ac-bordeaux.fr,http://www.ac-bordeaux.fr/Etablissement/ClgMaxLinderStLoubes,BORDEAUX RIVE DROITE,MME MARTIN,MME GAVETTI,MME ORSAT,,0,0,0,1,0,0,1,,,,90,,,37,29-05-2015,1007,1012,1020,971,935,44.910062,-0.429037
2014,0332341R,13-02-1976,,CLG,public,Collège Jacques Prévert,BOURG,La Clote Nord 33710 Bourg,05 57 68 46 10,05 57 94 09 46,ce.0332341R@ac-bordeaux.fr,http://collegejacquesprevertdebourgsurgironde.wordpress.com/,BLAYE,MME CASSAGNEAU,MME CAJAN,MME HAMM-SMAER,,1,0,0,0,0,0,1,13,,,,,,18,29-05-2015,575,582,559,567,524,45.042318,-0.554438
2014,0333108Z,01-09-2004,,CLG,public,Collège Jean Moulin,LE BOUSCAT,Rue Président Ali Chekkal 33110 Le Bouscat,05 56 08 90 28,05 56 08 90 28,ce.0333108Z@ac-bordeaux.fr,http://webetab.ac-bordeaux.fr/college-jean-moulin-bouscat,BORDEAUX NORD,MME FLOC H,,MME GUYOU,,0,0,0,0,0,0,1,,,,,,,35,29-05-2015,389,377,357,346,372,44.863571,-0.6049
2014,0333121N,01-09-2005,,CLG,public,Collège Gaston Flament,MARCHEPRIME,33 Avenue Léon Delagrange 33380 Marcheprime,05 57 71 56 70,05 57 71 56 71,ce.0333121N@ac-bordeaux.fr,http://webetab.ac-bordeaux.fr/t3_0333121n/,ARCACHON,MME THILLAY,MME LAPLANCHE,MME SIMON-LABRIC,,0,0,0,1,0,0,1,,,,53,,,47,29-05-2015,652,635,661,645,586,44.698906,-0.847257
2014,0333129X,01-09-2005,,CLG,privé sous contrat,Collège Privé St Joseph,BLANQUEFORT,12 Avenue du 8 Mai 33290 Blanquefort,05 56 95 54 30,05 56 35 99 70,ce.0333129X@ac-bordeaux.fr,http://www.fondation-auteuil.org,BORDEAUX NORD,,,MME BENGUIGUI,,0,0,0,0,0,0,0,,,,,,,,29-05-2015,93,95,93,91,71,44.908762,-0.645588
2014,0333132A,01-09-2006,,CLG,public,Collège de Carbon Blanc,CARBON BLANC,Rue des Futaies 33560 Carbon-Blanc,05 57 77 10 25,05 56 06 61 45,ce.0333132A@ac-bordeaux.fr,http://ccbweb.fr/,BORDEAUX RIVE DROITE,MME FORT,,M. BUGEAU,,1,0,0,0,0,0,1,10,,,,,,20,29-05-2015,534,552,559,538,570,44.90959,-0.498771
2014,0333133B,01-09-2006,,CLG,public,Collège Olympe de Gouges de Cadaujac,CADAUJAC,250 Chemin du Château 33140 Cadaujac,05 57 83 24 55,05 57 83 24 56,ce.0333133B@ac-bordeaux.fr,http://www.ac-bordeaux.fr/Etablissement/ClgCadaujac,TALENCE,M. BONNET,MME CHASSEUR,M. AUCHTER,,0,0,0,1,0,0,1,,,,54,,,38,29-05-2015,638,636,624,614,592,44.750127,-0.52818
2014,0333134C,01-09-2006,,CLG,public,Collège de l'Estey St Jean d'Illac,SAINT JEAN D ILLAC,2200 Avenue du Las 33127 Saint-Jean-d'Illac,05 56 21 09 50,05 56 21 09 50,ce.0333134C@ac-bordeaux.fr,http://webetab.ac-bordeaux.fr/college-saintjeandillac/,MERIGNAC PESSAC,MME BENOIST,,MME BENHALILOU,,0,0,0,1,0,1,1,,,,55,,1,17,29-05-2015,458,473,470,457,475,44.805635,-0.80767
2014,0333213N,01-09-2009,,CLG,public,COLLEGE MARGUERITE DURAS,LIBOURNE,13 Avenue François Mauriac 33500 Libourne,05 57 84 06 06,05 57 24 93 68,ce.0333213N@ac-bordeaux.fr,http://webetab.ac-bordeaux.fr/college-marguerite-duras/,LIBOURNE,M. VAYSSIERES,MME FLOREAN,M. DIHAL,,1,1,0,1,0,1,1,13,84,,36,,57,43,29-05-2015,475,508,492,518,522,44.902582,-0.235133
2014,0330017P,01-05-1965,,CLG,public,Collège Jean Zay,BIGANOS,Avenue de la Côte d'Argent 33380 Biganos,05 57 17 01 70,05 57 17 01 73,ce.0330017P@ac-bordeaux.fr,http://collegebiganos.fr,ARCACHON,M. LA GOUTE,MME CAILLAUD,MME BAUDELIN,,0,0,0,1,0,0,1,,,,23,,,49,29-05-2015,551,557,530,508,502,44.639692,-0.963859
2014,0330058J,01-05-1965,,CLG,public,Collège Paul Emile Victor,BRANNE,43 Rue Fort Bayard 33420 Branne,05 57 55 49 00,05 57 55 49 00,ce.0330058J@ac-bordeaux.fr,http://webetab.ac-bordeaux.fr/Etablissement/CPEVictorBranne/,LIBOURNE,M. MELLE,,MME DUCLOS,,1,0,0,0,0,0,0,13,,,,,,,29-05-2015,540,518,484,439,414,44.824405,-0.184135
2014,0330059K,01-05-1965,,CLG,public,Collège Anatole France,CADILLAC,Chemin des Baries 33410 Cadillac,05 56 62 98 42,05 56 62 69 81,ce.0330059K@ac-bordeaux.fr,http://afcadillac.net/,SUD GIRONDE,M. DEBSKI,MME CHAMPION,MME PIQUE,,0,0,0,1,0,0,0,,,,42,,,,29-05-2015,681,682,695,699,674,44.632393,-0.306929
2014,0330062N,01-05-1965,,CLG,public,Collège Canterane,CASTELNAU DE MEDOC,44 Rue Saint-Gènes 33480 Castelnau-de-Médoc,05 57 88 83 70,05 57 88 83 71,ce.0330062N@ac-bordeaux.fr,http://webetab.ac-bordeaux.fr/Etablissement/Canterane/,MEDOC,M. ROQUEJOFFRE,MME FERNANDEZ ARFEUILLE,M. VINET,,0,0,0,1,0,0,1,,,,47,,,20,29-05-2015,573,615,714,705,653,45.030291,-0.791255
2014,0330064R,01-05-1965,,CLG,public,Collège Aliénor d'Aquitaine,CASTILLON LA BATAILLE,3 Rue Jean Monnet 33350 Castillon-la-Bataille,05 57 40 02 12,05 57 40 32 10,ce.0330064R@ac-bordeaux.fr,http://webetab.ac-bordeaux.fr/college-castillon/,LIBOURNE,MME PEYSSONNERIE,MME BRISSEAU,MME BUTEAU,,1,0,0,0,0,1,0,12,,,,,26,,29-05-2015,383,352,368,371,404,44.850693,-0.051429
2014,0330065S,01-05-1965,,CLG,public,Collège Monsejour,BORDEAUX,7 Rue du Chanoine André Lacaze 33200 Bordeaux,05 56 12 16 40,05 56 47 21 07,ce.0330065S@ac-bordeaux.fr,,BORDEAUX NORD,M. PERTOLDI,MME LABAT,M. TOUSSAINT,,0,0,0,0,0,0,0,,,,,,,,29-05-2015,561,543,513,528,501,44.856214,-0.630392
2014,0330066T,01-05-1965,,CLG,public,Collège Saint André,BORDEAUX,59 Rue Cerey 33200 Bordeaux,05 56 08 08 68,05 57 22 92 30,ce.0330066T@ac-bordeaux.fr,http://webetab.ac-bordeaux.fr/college-saint-andre/,BORDEAUX NORD,M. DUPUY,MME ZITOUNI,MME MUSSEAU,,0,0,0,0,0,1,1,,,,,,14,55,29-05-2015,692,703,670,623,576,44.855821,-0.616512
2014,0330081J,01-05-1965,,CLG,public,Collège Jules Chambrelent,HOURTIN,11 Rue de la Bouaille 33990 Hourtin,05 56 09 12 52,05 56 09 12 52,ce.0330081J@ac-bordeaux.fr,http://webetab.ac-bordeaux.fr/Etablissement/CChambrelentHourtin/,MEDOC,MME MAZON,,MME DARRIGRAND,,0,0,0,0,0,1,0,,,,,,25,,29-05-2015,411,407,470,431,404,45.190533,-1.057988
2014,0330083L,01-05-1965,,CLG,public,Collège Jules Ferry,LANGON,22 Rue Jules Ferry 33210 Langon,05 57 98 02 40,05 57 98 02 42,ce.0330083L@ac-bordeaux.fr,http://webetab.ac-bordeaux.fr/college-julesferry-langon/,SUD GIRONDE,M. CHICHE,MME LEROUX,M. BUCHARD,,1,0,0,0,0,0,1,12,,,,,,37,29-05-2015,450,453,490,476,494,44.549058,-0.252896
2014,0330084M,01-05-1965,,CLG,public,Collège Toulouse Lautrec,LANGON,1 Boulevard Léon Blum 33210 Langon,05 56 62 22 50,05 57 98 19 18,ce.0330084M@ac-bordeaux.fr,http://webetab.ac-bordeaux.fr/college-toulouse-lautrec-langon/,SUD GIRONDE,MME STEPHANUS,MME MAUCOURANT-DALLOZ,MME BOURGARIT,,1,1,0,1,0,1,1,15,108,,76,,61,56,29-05-2015,670,647,663,645,619,44.545152,-0.25298
2014,0330091V,01-05-1965,,CLG,public,Collège Les Dagueys,LIBOURNE,27 Avenue François Mitterrand 33500 Libourne,05 57 51 11 87,05 57 55 21 31,ce.0330091V@ac-bordeaux.fr,http://www.collegelesdagueys.fr,LIBOURNE,M. VERDIER,MME CLEMENT,MME CABOURDIN-DUBOSCQ,,1,1,0,1,0,0,1,15,103,,54,,,35,29-05-2015,611,614,598,590,576,44.947905,-0.242577
2014,0330093X,01-05-1965,,CLG,public,Collège,LUSSAC,10 Avenue de Verdun 33570 Lussac,05 57 74 60 32,05 57 74 58 24,ce.0330093X@ac-bordeaux.fr,http://webetab.ac-bordeaux.fr/Etablissement/CLussac/,LIBOURNE,M. HERCE,,MME TREBUCQ,,0,0,0,0,0,0,1,,,,,,,44,29-05-2015,323,325,329,320,326,44.948772,-0.099288
2014,0330100E,01-05-1965,,CLG,public,Collège Eléonore de Provence,MONSEGUR,Le Stade 33580 Monségur,05 56 61 56 40,05 56 61 64 21,ce.0330100E@ac-bordeaux.fr,http://www.ac-bordeaux.fr/Etablissement/ClgEdeProvenceMonsegur,SUD GIRONDE,M. DAUDET,,MME BOGET,,0,0,0,0,0,0,1,,,,,,,7,29-05-2015,289,293,294,293,272,44.64842,0.072005
2014,0330103H,01-05-1965,,CLG,public,Collège Pierre de Belleyme,PAUILLAC,Rue Édouard de Pontet 33250 Pauillac,05 56 73 26 00,05 56 59 26 72,ce.0330103H@ac-bordeaux.fr,http://webetab.ac-bordeaux.fr/college-pauillac/,MEDOC,MME RONNE,M. CASTAIGNON,MME ANSELM,,1,1,0,1,0,1,1,14,91,,55,,37,20,29-05-2015,675,695,703,694,653,45.201981,-0.749342
2014,0330105K,01-05-1965,,CLG,public,Collège Champ d'Eymet,PELLEGRUE,8 Rue des Écoles 33790 Pellegrue,05 56 61 30 45,05 56 61 41 54,ce.0330105K@ac-bordeaux.fr,http://clg-champ-eymet.olympe.in/,SUD GIRONDE,MME BAGGIO THOMAS,,MME CELESTE,,0,0,0,0,0,0,0,,,,,,,,29-05-2015,179,169,158,157,152,44.743415,0.07393
2014,0330106L,01-05-1965,,CLG,public,Collège François Mitterrand,PESSAC,3 Rue André Chénier 33600 Pessac,05 56 45 15 79,05 56 45 36 44,ce.0330106L@ac-bordeaux.fr,http://www.fmitterrand.fr/,MERIGNAC PESSAC,MME JAFFRE,,MME LALANNE BENAC,Zone urbaine sensible (ZUS),1,0,0,1,0,0,1,12,,,5,,,37,29-05-2015,360,378,392,407,422,44.79247,-0.644799
2014,0330108N,01-05-1965,,CLG,public,Collège Georges Brassens,PODENSAC,3 Cours du Mal Joffre 33720 Podensac,05 56 27 17 61,05 56 27 17 61,ce.0330108N@ac-bordeaux.fr,http://www.college-podensac.fr/,SUD GIRONDE,M. HOCQ,MME BRUNEL,MME REY,,0,1,0,0,0,1,1,,48,,,,40,53,29-05-2015,713,700,656,613,573,44.648737,-0.353084
2014,0330113U,01-05-1965,,CLG,public,Collège Jean Monnet,SAINT CIERS SUR GIRONDE,10 Rue des Droits de l'Homme 33820 Saint-Ciers-sur-Gironde,05 57 32 60 39,05 57 32 60 39,ce.0330113U@ac-bordeaux.fr,http://webetab.ac-bordeaux.fr/Etablissement/StCiers/CONTACTS.htm,BLAYE,M. GUIBON,M. BATISTA,MME COUTURIER,,0,0,0,0,0,0,1,,,,,,,40,29-05-2015,586,581,562,528,521,45.293816,-0.612541
2014,0330122D,01-05-1965,,CLG,public,Collège François Mauriac,SAINT SYMPHORIEN,6 Avenue du Huit Mai 33113 Saint-Symphorien,05 56 25 71 64,05 56 25 78 25,ce.0330122D@ac-bordeaux.fr,http://www.college-saint-symphorien-33.fr,SUD GIRONDE,M. GUNSETT,MME CHABREFY,MME ROUFFAUD,,0,0,0,0,0,0,0,,,,,,,,29-05-2015,553,502,475,454,417,44.430488,-0.493151
2014,0330125G,01-05-1965,,CLG,public,Collège Georges Mandel,SOULAC SUR MER,27 Rue Georges Mandel 33780 Soulac-sur-Mer,05 56 09 83 24,05 56 09 81 83,ce.0330125G@ac-bordeaux.fr,http://webetab.ac-bordeaux.fr/college-georges-mandel/,MEDOC,MME LAFOND,,M. BAYLE,,0,0,0,1,0,0,0,,,,39,,,,29-05-2015,316,325,338,311,295,45.505694,-1.122645
2014,0330128K,01-05-1965,,CLG,public,Collège Henri Brisson,TALENCE,15 Rue Armand Leroi 33400 Talence,05 56 04 12 80,05 57 96 98 01,ce.0330128K@ac-bordeaux.fr,http://webetab.ac-bordeaux.fr/college-henri-brisson-talence,TALENCE,M. MANIGAND,,MME FAYARD,,0,0,0,1,0,0,1,,,,64,,,34,29-05-2015,494,502,518,493,447,44.818737,-0.592212
2014,0330129L,01-05-1965,,CLG,public,Collège Henri Dheurle,LA TESTE DE BUCH,9 Rue Pierre de Coubertin 33260 La Teste-de-Buch,05 57 52 55 20,05 56 66 89 57,ce.0330129L@ac-bordeaux.fr,http://college-lateste.fr,ARCACHON,M. BARRAT,M. GROSSELIN,MME LLATAS-SABATIER,,1,0,0,1,0,0,1,12,,,38,,,58,29-05-2015,744,737,765,759,778,44.63078,-1.135637
2014,0330132P,01-05-1965,,CLG,public,Collège Pont de La Maye,VILLENAVE D ORNON,5 Allée du Commandant Moos 33140 Villenave-d'Ornon,05 56 87 14 03,05 56 87 79 30,ce.0330132P@ac-bordeaux.fr,http://webetab.ac-bordeaux.fr/college-pontdelamaye/,BORDEAUX SUD,M. ALLEMAND,M. MINIER,M. BESSEMOULIN,,0,0,0,1,0,0,0,,,,49,,,,29-05-2015,581,561,558,542,536,44.780443,-0.567677
2014,0330138W,01-05-1965,,CLG,public,Collège Jean Aviotte,GUITRES,6 Grand-Rue 33230 Guîtres,05 57 69 12 65,05 57 69 12 65,ce.0330138W@ac-bordeaux.fr,http://college-guitres.com/,LIBOURNE,M. FLOREAN,M. GUILMET-VIDOR,M. DESCHAMPS,,0,0,0,1,0,0,1,,,,45,,,24,29-05-2015,442,471,464,440,419,45.040903,-0.186015
2014,0330140Y,01-05-1965,,CLG,public,Collège Grand Parc,BORDEAUX,25 Rue Pierre Trebod 33300 Bordeaux,05 56 11 19 60,05 56 11 19 65,ce.0330140Y@ac-bordeaux.fr,http://webetab.ac-bordeaux.fr/college-grand-parc/,BORDEAUX NORD,M. THOMAS,MME BORGES,M. KABACOFF,,0,1,0,0,0,1,1,,58,,,,37,39,29-05-2015,374,354,379,372,382,44.856224,-0.583442
2014,0330145D,08-12-1965,,CLG,public,Collège Capeyron,MERIGNAC,50 Avenue de Bedat 33700 Mérignac,05 56 47 01 06,05 56 47 01 06,ce.0330145D@ac-bordeaux.fr,http://www.collegecapeyron.fr/,MERIGNAC PESSAC,MME BERJOT,MME VANDENBERGUE,MME TEYSSIER,,0,0,0,1,0,0,1,,,,60,,,43,29-05-2015,437,437,421,451,449,44.84956,-0.647461
2014,0330146E,08-12-1965,,CLG,public,Collège Jules Ferry,MERIGNAC,1 Rue Frédéric Joliot Curie 33700 Mérignac,05 56 47 01 67,05 56 18 83 40,ce.0330146E@ac-bordeaux.fr,http://webetab.ac-bordeaux.fr/college-jules-ferry-merignac,MERIGNAC PESSAC,MME LEMONNIER,MME CHADEFFAUD HERZIG,MME LEON,,0,0,0,1,0,0,1,,,,52,,,41,29-05-2015,488,471,459,434,471,44.841727,-0.651262
2014,0330162X,14-03-1977,,CLG,public,Collège Eugène Atget,LIBOURNE,14 Rue Abel Boireau 33500 Libourne,05 57 25 13 31,05 57 25 13 31,ce.0330162X@ac-bordeaux.fr,http://collegeeatget.free.fr/,LIBOURNE,M. GOURSOLLE,,M. GUILHEM-GUERY,,0,0,0,1,0,0,0,,,,52,,,,29-05-2015,453,456,456,451,443,44.917715,-0.242039
2014,0330163Y,14-03-1977,,CLG,public,Collège Elie Faure,SAINTE FOY LA GRANDE,Sainte-Foy-la-Grande,05 53 74 46 60,05 53 58 31 85,ce.0330163Y@ac-bordeaux.fr,http://webetab.ac-bordeaux.fr/college-elie-faure/,LIBOURNE,M. CHARRIER,MME DUBOIS,MME RIADO,,1,1,0,0,0,1,1,13,48,,,,68,37,29-05-2015,468,448,497,515,561,44.839783,0.216751
2014,0330167C,14-03-1977,,CLG,public,Collège Marie Bartette,ARCACHON,9 Avenue Roland Dorgeles 33120 Arcachon,05 56 22 35 80,05 56 22 35 80,ce.0330167C@ac-bordeaux.fr,https://educhorus.enteduc.fr/0330167C_pre/site/1-Pr-sentation;jsessionid=BF8B9362A57366B74F89C0E6616F5532,ARCACHON,MME AMOUROUX,MME SORIA,M. BONNAY,,0,0,0,1,0,1,0,,,,26,,18,,29-05-2015,437,452,486,471,463,44.650777,-1.160277
2014,0331419N,11-05-1977,,CLG,public,Collège Georges Rayet,FLOIRAC,42 Chemin de Cornier 33270 Floirac,05 56 40 10 15,05 56 40 10 15,ce.0331419N@ac-bordeaux.fr,http://webetab.ac-bordeaux.fr/college-rayet/,BORDEAUX RIVE DROITE,M. DELATTRE,M. GAULT,M. LUBEIGT,Zone urbaine sensible (ZUS),1,0,0,1,0,0,1,2,,,32,,,34,29-05-2015,564,609,610,600,606,44.842111,-0.515439
2014,0331433D,03-10-1966,,CLG,public,Collège Pierre Martin,RAUZAN,Rue du Collège 33420 Rauzan,05 57 84 73 50,05 57 84 73 59,ce.0331433D@ac-bordeaux.fr,http://www.clg-pierre-martin-rauzan.fr,LIBOURNE,M. JOMIN,,MME BERARD,,0,0,0,0,0,0,0,,,,,,,,29-05-2015,374,370,375,359,349,44.777267,-0.124458
2014,0331435F,10-10-1966,,CLG,public,Collège Les Eyquems,MERIGNAC,Rue de Veyrines 33700 Mérignac,05 56 47 06 04,05 56 47 06 04,ce.0331435F@ac-bordeaux.fr,http://www.collegeleseyquems.fr/,MERIGNAC PESSAC,MME MOUTON BARRERE,MME GOUINEAU,M. LARTIRIGOYEN,,0,0,0,1,0,0,0,,,,27,,,,29-05-2015,558,578,573,580,555,44.825624,-0.64779
2014,0331461J,07-11-1967,,CLG,public,Collège Cassignol,BORDEAUX,62 Rue Laroche 33000 Bordeaux,05 56 81 80 25,05 56 81 33 28,ce.0331461J@ac-bordeaux.fr,http://webetab.ac-bordeaux.fr/Etablissement/Cassignol/,BORDEAUX NORD,M. BOUNAUD,MME DELESTRE,MME HUG,,0,0,0,1,1,0,1,,,,55,51,,99,29-05-2015,800,804,833,834,838,44.852214,-0.585127
2014,0331462K,07-11-1967,,CLG,public,Collège Franscisco Goya,BORDEAUX,56 Rue du Commandant Arnould 33000 Bordeaux,05 57 95 07 30,05 57 95 07 30,ce.0331462K@ac-bordeaux.fr,https://collegegoya.wordpress.com/,BORDEAUX SUD,M. ERHART,,MME BARRA,,0,0,0,0,0,0,1,,,,,,,51,29-05-2015,305,303,292,289,291,44.834336,-0.577106
2014,0331464M,07-11-1967,,CLG,public,Collège Jean Zay,CENON,Avenue Jean Zay 33150 Cenon,05 57 80 92 92,05 57 80 92 99,ce.0331464M@ac-bordeaux.fr,http://webetab.ac-bordeaux.fr/Etablissement/ClgJeanZayCenon,BORDEAUX RIVE DROITE,MME BOIREAU CANET,M. RAISON,MME REVOLAT,Zone urbaine sensible (ZUS),0,0,0,1,0,0,1,,,,69,,,60,29-05-2015,662,670,629,587,577,44.853608,-0.50994
2014,0331490R,15-03-1967,,CLG,privé sous contrat,Collège privé Lestonnac,CARIGNAN DE BORDEAUX,92 Route de Fargues 33360 Carignan-de-Bordeaux,05 56 21 94 70,05 56 68 32 17,ce.0331490R@ac-bordeaux.fr,,BORDEAUX RIVE DROITE,,,,,1,0,0,0,0,0,0,14,,,,,,,29-05-2015,429,386,350,302,265,44.821663,-0.458808
2014,0331492T,15-03-1967,,CLG,privé sous contrat,Collège privé Assomption Sainte Clotilde,BORDEAUX,9 Rue de Bel Orme 33000 Bordeaux,05 56 48 29 06,05 56 81 82 57,ce.0331492T@ac-bordeaux.fr,http://www.assomption-bordeaux.com,BORDEAUX NORD,,,,,0,0,1,0,0,0,1,,,137,,,,57,29-05-2015,475,486,475,462,424,44.848107,-0.595699
2014,0331500B,15-03-1967,,CLG,privé sous contrat,Collège privé Notre-Dame Sévigné,TALENCE,36 Allée du 7e Art 33400 Talence,05 56 80 55 51,05 56 80 93 30,ce.0331500B@ac-bordeaux.fr,http://www.notredamesevigne.fr,TALENCE,,,,,0,0,0,0,0,0,0,,,,,,,,29-05-2015,454,463,435,448,444,44.811403,-0.592898
2014,0331507J,15-03-1967,,CLG,privé sous contrat,Collège privé Saint Joseph,LIBOURNE,32 Rue des Chais 33500 Libourne,05 57 55 38 90,05 57 25 36 43,ce.0331507J@ac-bordeaux.fr,http://www.stjo-libourne.com,LIBOURNE,,,,,0,0,0,1,0,0,1,,,,61,,,51,29-05-2015,701,703,675,673,648,44.915137,-0.246826
2014,0331511N,05-04-1967,,CLG,privé sous contrat,Collège privé Jeanne d'Arc - Saint Romain,BLAYE,Rue André Lafon 33390 Blaye,05 57 42 00 08,05 57 42 92 63,ce.0331511N@ac-bordeaux.fr,http://www.jdarcsr.com,BLAYE,,,M. CARREAUX,,0,0,0,0,0,0,0,,,,,,,,29-05-2015,221,225,216,207,167,45.125395,-0.65603
2014,0331513R,17-03-1967,,CLG,privé sous contrat,Collège privé Saint Louis Sainte Thérèse,BORDEAUX,47 Cours Balguerie Stuttenberg 33300 Bordeaux,05 57 87 64 51,05 57 87 71 69,accueil@sthelo.com,www.sthelo.com,BORDEAUX NORD,,,,,0,0,0,0,0,0,0,,,,,,,,29-05-2015,275,265,246,241,223,44.856989,-0.568877
2014,0331519X,16-03-1967,,CLG,privé sous contrat,Collège privé Saint Seurin,BORDEAUX,75 Rue Lachassaigne 33000 Bordeaux,05 56 24 27 88,05 56 24 01 21,ce.0331519X@ac-bordeaux.fr,http://saint-seurin.com/,BORDEAUX NORD,,,,,0,0,0,0,0,0,1,,,,,,,35,29-05-2015,220,229,227,218,202,44.843598,-0.589261
2014,0331523B,05-04-1967,,CLG,privé sous contrat,Collège privé Sainte Anne,LE BOUSCAT,117 Rue Président Kennedy 33110 Le Bouscat,05 56 08 79 22,05 56 08 52 97,ce.0331523B@ac-bordeaux.fr,http://www.sainteannelebouscat.fr,BORDEAUX NORD,,,,,0,0,0,1,0,0,0,,,,37,,,,29-05-2015,472,458,450,436,412,44.866401,-0.606889
2014,0331524C,05-04-1967,,CLG,privé sous contrat,Collège privé Jean J.Lataste,CADILLAC,3 Chemin de Toinette 33410 Cadillac,05 56 62 67 75,05 56 62 68 68,ce.0331524C@ac-bordeaux.fr,http://www.jjlataste.fr,SUD GIRONDE,,,,,0,0,0,0,0,0,0,,,,,,,,29-05-2015,129,153,150,126,133,44.638445,-0.314391
2014,0331527F,05-04-1967,,CLG,privé sous contrat,Collège privé Sainte Marie Jeanne d'Arc,LANGON,8 Cours Sadi Carnot 33210 Langon,05 56 63 14 39,05 56 63 31 12,stm33@free.fr,http://stm33.free.fr/,SUD GIRONDE,,,,,0,0,0,0,0,0,0,,,,,,,,29-05-2015,191,168,167,165,175,44.556438,-0.249715
2014,0331528G,05-04-1967,,CLG,privé sous contrat,Collège privé Notre-Dame,LESPARRE MEDOC,14 Rue de l'Église 33340 Lesparre-Médoc,05 56 73 32 05,05 56 73 32 07,ce.0331528G@ac-bordeaux.fr,www.ecole-notredame.org,MEDOC,,,,,1,0,0,0,0,0,0,13,,,,,,,29-05-2015,175,169,165,158,170,45.307378,-0.937687
2014,0331529H,05-04-1967,,CLG,privé sous contrat,Collège privé Sainte Jeanne d'Arc Saint Joseph,PESSAC,,05 56 45 04 50,05 56 45 51 91,ce.0331529H@ac-bordeaux.fr,http://www.jeannedarc-pessac.eu,MERIGNAC PESSAC,,,M. ECHEKDJIAN,,0,0,0,1,0,0,1,,,,275,,,162,29-05-2015,602,582,550,526,509,,
2014,0331530J,05-04-1967,,CLG,privé sous contrat,Collège privé Sainte Marie,SAINT ANDRE DE CUBZAC,11 Rue Nationale 33240 Saint-André-de-Cubzac,05 57 43 06 52,05 57 43 45 18,ce.0331530J@ac-bordeaux.fr,http://www.ecole-college.com,BLAYE,,,,,0,0,0,1,0,1,0,,,,53,,100,,29-05-2015,629,623,611,587,572,44.989648,-0.448809
2014,0331531K,05-04-1967,,CLG,privé sous contrat,Collège privé Anglade Langalerie,SAINTE FOY LA GRANDE,49 Rue Louis Pasteur 33220 Sainte-Foy-la-Grande,05 57 46 03 12,05 57 46 21 62,ce.0331531K@ac-bordeaux.fr,,LIBOURNE,,,MME FERRAND,,0,0,0,0,0,0,0,,,,,,,,29-05-2015,180,183,174,174,149,44.840443,0.215093
2014,0331532L,05-04-1967,,CLG,privé sous contrat,Collège privé Jeanne d'Arc,SAINT MEDARD DE GUIZIERES,3 Place de la Fraternité 33230 Saint-Médard-de-Guizières,05 57 56 00 88,05 57 56 00 89,ce.0331532L@ac-bordeaux.fr,http://www.ecole-jeannedarc.info,LIBOURNE,,,MME GOMBEAUD,,0,0,0,1,0,0,1,,,,135,,,54,29-05-2015,344,338,328,335,326,45.015545,-0.060387
2014,0331617D,02-04-1968,,CLG,public,Collège Claude Masse,AMBARES ET LAGRAVE,4 Avenue Pierre Barre 33440 Ambarès-et-Lagrave,05 56 38 93 60,05 56 38 93 60,ce.0331617D@ac-bordeaux.fr,http://ccmonline.fr/ccm/,BORDEAUX RIVE DROITE,M. SYNNAEVE,M. SORS,MME MARGUERITAT,,1,0,0,1,0,1,1,13,,,33,,17,81,29-05-2015,676,675,680,663,606,44.928319,-0.483032
2014,0331618E,02-04-1968,,CLG,public,Collège Léonard Lenoir,BORDEAUX,16 Rue Léonard Lenoir 33100 Bordeaux,05 57 80 76 16,05 57 80 22 29,ce.0331618E@ac-bordeaux.fr,www.college-lenoir.org,BORDEAUX RIVE DROITE,MME CAILLOT,,M. GRATRAUD,,0,0,0,1,0,0,0,,,,46,,,,29-05-2015,289,287,290,292,292,44.841539,-0.553824
2014,0331619F,02-04-1968,,CLG,public,Collège Georges Lapierre,LORMONT,Rue Pierre Brossolette 33310 Lormont,05 57 80 10 25,05 56 31 71 76,ce.0331619F@ac-bordeaux.fr,http://www.ac-bordeaux.fr/Etablissement/ClgGLapierreLormont,BORDEAUX RIVE DROITE,M. CIRET,MME ULYSSE,M. LAVIT,Zone urbaine sensible (ZUS),1,1,0,1,0,0,0,13,71,,34,,,,29-05-2015,415,425,414,395,424,44.874214,-0.52216
2014,0331620G,02-04-1968,,CLG,public,Collège Camille Claudel,LATRESNE,6 Chemin du Stade 33360 Latresne,05 57 97 15 99,05 56 20 18 47,ce.0331620G@ac-bordeaux.fr,http://webetab.ac-bordeaux.fr/college-latresne/,BORDEAUX RIVE DROITE,MME SETBON,M. ESCUER,M. SALIME,,1,0,0,1,0,0,1,6,,,59,,,96,29-05-2015,797,812,915,896,922,44.786346,-0.492574
2014,0331621H,02-04-1968,,CLG,public,Collège Henri de Navarre,COUTRAS,9 Rue Jean Zay 33230 Coutras,05 57 56 00 40,05 57 56 00 40,ce.0331621H@ac-bordeaux.fr,http://webetab.ac-bordeaux.fr/college-coutras/,LIBOURNE,M. CHAMPIGNEUL,MME MERLE,M. IRR,,1,1,0,1,0,1,1,14,94,,36,,34,73,29-05-2015,696,722,721,751,751,45.041559,-0.118575
2014,0331622J,02-04-1968,,CLG,public,Collège Fontaines de Monjous,GRADIGNAN,7 Rue des Fontaines de Monjous 33170 Gradignan,05 56 89 19 01,05 56 75 11 57,ce.0331622J@ac-bordeaux.fr,http://webetab.ac-bordeaux.fr/college-fontaines-monjous-gradignan,TALENCE,M. TOURNERIE,M. LIENARD,M. GUERIN,,0,0,0,1,0,0,1,,,,58,,,54,29-05-2015,735,745,751,704,684,44.777063,-0.608693
2014,0331623K,03-04-1968,,CLG,public,Collège Alouette,PESSAC,Pessac,05 57 89 11 12,05 57 89 11 13,ce.0331623K@ac-bordeaux.fr,http://webetab.ac-bordeaux.fr/college-alouette-pessac/,MERIGNAC PESSAC,M. TOULET MORLANNE,MME MOUY,M. ROUANET,Zone urbaine sensible (ZUS),0,0,0,1,0,0,1,,,,6,,,23,29-05-2015,638,631,638,625,612,44.805275,-0.633356
2014,0331644H,18-11-1968,,CLG,privé sous contrat,Collège privé Saint Jean,PAUILLAC,7 Rue du Maquis des Vignes Oudides 33250 Pauillac,05 57 75 20 21,05 56 59 62 93,ce.0331644H@ac-bordeaux.fr,http://www.stjean-pauillac.com,MEDOC,,,,,0,0,0,0,0,0,1,,,,,,,20,29-05-2015,251,252,240,217,231,45.194172,-0.749379
2014,0331662C,03-03-1969,,CLG,public,Collège Alain Fournier,BORDEAUX,83 Rue Saint-Gènes 33000 Bordeaux,05 56 96 18 94,05 56 99 46 47,ce.0331662C@ac-bordeaux.fr,http://www.ac-bordeaux.fr/Etablissement/CAFournierBordeaux,BORDEAUX SUD,MME CAUCHOIS,MME UNEAU,MME DECAP,,1,0,1,0,0,0,1,3,,103,,,,163,29-05-2015,697,685,724,732,745,44.827697,-0.580061
2014,0331663D,03-03-1969,,CLG,public,Collège Cheverus,BORDEAUX,62 Rue Fieffé 33800 Bordeaux,05 56 48 57 00,05 56 48 57 00,ce.0331663D@ac-bordeaux.fr,http://webetab.ac-bordeaux.fr/college-cheverus/,BORDEAUX SUD,MME MEGRET,M. KITTEN,MME JACTEL,,0,1,1,1,0,0,1,,52,101,55,,,137,29-05-2015,407,357,359,401,486,44.823834,-0.561498
2014,0331664E,03-03-1969,,CLG,public,Collège François Mauriac,SAINT MEDARD EN JALLES,131 Avenue Montaigne 33160 Saint-Médard-en-Jalles,05 56 05 08 24,05 56 05 08 24,ce.0331664E@ac-bordeaux.fr,http://webetab.ac-bordeaux.fr/Etablissement/CFMauriacStMedard/,BORDEAUX NORD,MME ARFOUILLOUX-DUBOS,MME SAVIGNAC,M. CHAMPOUX,,0,0,0,1,0,0,0,,,,51,,,,29-05-2015,601,567,573,564,559,44.893863,-0.712014
2014,0331666G,03-03-1969,,CLG,public,Collège Alienor d'Aquitaine,SALLES,22 Route du Martinet 33770 Salles,05 56 88 42 27,05 56 88 42 27,ce.0331666G@ac-bordeaux.fr,http://www.collegedesalles.com/,ARCACHON,M. MARTIN,MME PERNEZ,MME CANTON,,0,0,0,1,0,0,1,,,,54,,,111,29-05-2015,851,829,819,815,779,44.547314,-0.881478
2014,0331667H,03-03-1969,,CLG,public,Collège Robert Barrière,SAUVETERRE DE GUYENNE,Au Closet 33540 Sauveterre-de-Guyenne,05 56 71 51 51,05 56 71 53 40,ce.0331667H@ac-bordeaux.fr,http://collegerbopen.jimdo.com,SUD GIRONDE,M. SURGET,M. BRUANT,MME ROUFFIGNAT,,1,1,0,1,0,0,1,13,59,,12,,,36,29-05-2015,337,324,326,325,336,44.697062,-0.080888
2014,0331669K,03-03-1969,,CLG,public,Collège Ausone,LE BOUSCAT,69 Avenue Ausone 33110 Le Bouscat,05 56 50 74 14,05 56 39 02 38,ce.0331669K@ac-bordeaux.fr,http://webetab.ac-bordeaux.fr/t3_0331669k/,BORDEAUX NORD,M. THOLLARD,MME GODARD,M. ANDRE,,1,1,0,1,0,1,0,14,67,,33,,28,,29-05-2015,565,579,611,747,733,44.871217,-0.59504
2014,0331752A,18-02-1970,,CLG,public,Collège Marcelin Berthelot,BEGLES,23 Rue Berthelot 33130 Bègles,05 57 35 08 50,05 57 35 08 50,ce.0331752A@ac-bordeaux.fr,http://www.collegeberthelot-begles.fr/,BORDEAUX SUD,M. MESSAOUDI,M. DAUPHIN,MME JAFFRES,,0,0,0,0,0,0,1,,,,,,,84,29-05-2015,590,582,602,583,592,44.80839,-0.566769
2014,0331753B,18-02-1970,,CLG,public,Collège Blanqui,BORDEAUX,75 Rue Charles Martin 33300 Bordeaux,05 56 50 82 28,05 57 19 14 90,ce.0331753B@ac-bordeaux.fr,,BORDEAUX NORD,MME ROBIN,,MME LASFARGUES,Zone urbaine sensible (ZUS),0,0,0,1,0,0,0,,,,21,,,,29-05-2015,242,230,233,245,225,44.874037,-0.54996
2014,0331754C,18-02-1970,,CLG,public,Collège Emmanuel Dupaty,BLANQUEFORT,28 Rue de Lattre de Tassigny 33290 Blanquefort,05 56 95 52 22,05 56 95 52 22,ce.0331754C@ac-bordeaux.fr,http://webetab.ac-bordeaux.fr/college-dupaty/,BORDEAUX NORD,MME CAPOT,M. BOUZIGNAC,MME MIQUAU,,1,1,0,1,0,0,1,13,96,,61,,,41,29-05-2015,741,719,697,683,659,44.907457,-0.627873
2014,0331757F,18-02-1970,,CLG,public,Collège,SAINT ANDRE DE CUBZAC,270 Chemin du Gymnase 33240 Saint-André-de-Cubzac,05 57 43 12 36,05 57 94 83 23,ce.0331757F@ac-bordeaux.fr,http://collegestandrecubzac.free.fr/,BLAYE,M. GARRIGUES,MME HEINTZ,MME TIFFON,,1,1,0,1,0,0,1,13,91,,59,,,66,29-05-2015,744,747,706,669,607,45.003039,-0.433653
2014,0331758G,18-02-1970,,CLG,public,Collège Noés,PESSAC,8 Avenue de Noës 33600 Pessac,05 56 15 25 40,05 56 45 50 54,ce.0331758G@ac-bordeaux.fr,http://webetab.ac-bordeaux.fr/college-noes/,MERIGNAC PESSAC,M. GIOUD,MME CHAUCHET-SAMUEL,M. PORTA BONETE,,0,0,0,1,0,1,1,,,,58,,54,33,29-05-2015,591,588,594,579,566,44.812596,-0.636227
2014,0331759H,18-02-1970,,CLG,public,Collège Chante Cigale,GUJAN MESTRAS,21 Allée Pierre Corneille 33470 Gujan-Mestras,05 56 66 05 72,05 56 66 78 82,ce.0331759H@ac-bordeaux.fr,http://www.collegegujan.fr,ARCACHON,MME CAUTY,MME DOR,MME BECHOU,,1,1,0,1,0,1,1,18,117,,27,,81,29,29-05-2015,779,805,771,729,716,44.621819,-1.060666
2014,0331880P,04-02-1971,,CLG,public,Collège Pablo Neruda,BEGLES,1 Chemin de Mussonville 33130 Bègles,05 56 85 96 04,05 56 85 26 88,ce.0331880P@ac-bordeaux.fr,http://www.ac-bordeaux.fr/Etablissement/Neruda,BORDEAUX SUD,MME GUERRA-DEVIGNE,M. RICHARD,M. KAYED,,1,1,0,1,0,1,1,12,51,,40,,5,44,29-05-2015,348,355,337,358,338,44.794197,-0.562393
2014,0331884U,04-02-1971,,CLG,public,Collège Manon Cormier,BASSENS,15 Rue du 19 Mars 1962 33530 Bassens,05 56 06 10 33,05 56 06 98 98,ce.0331884U@ac-bordeaux.fr,http://webetab.ac-bordeaux.fr/college-manon-cormier/,BORDEAUX RIVE DROITE,MME BEN HATTATE,M. RAVACHE,MME JAMES,,1,1,0,0,0,0,1,13,78,,,,,65,29-05-2015,443,462,433,443,429,44.900638,-0.508965
2014,0331885V,04-02-1971,,CLG,public,Collège Jean Jaurès,CENON,32 Avenue des 4 Pavillons 33150 Cenon,05 56 86 34 20,05 56 40 93 36,ce.0331885V@ac-bordeaux.fr,http://clgjaurescenon.ac-bordeaux.fr,BORDEAUX RIVE DROITE,M. FELBER,M. SALAS,MME MACALLI,Zone urbaine sensible (ZUS),1,1,0,1,0,1,1,12,60,,41,,33,48,29-05-2015,506,509,481,470,452,44.862489,-0.516901
2014,0331888Y,04-02-1971,,CLG,public,Collège du Val de Saye,SAINT YZAN DE SOUDIAC,2 Rue du Collège 33920 Saint-Yzan-de-Soudiac,05 57 58 91 18,05 57 58 99 61,ce.0331888Y@ac-bordeaux.fr,http://www.valdesaye.fr,BLAYE,MME MAURIN,M. HELLER,MME LACOMBE,,1,0,0,1,0,1,0,13,,,25,,31,,29-05-2015,724,720,689,703,717,45.139905,-0.410168
2014,0331890A,04-02-1971,,CLG,public,Collège André Lahaye,ANDERNOS LES BAINS,1 Avenue de l'Espérance 33510 Andernos-les-Bains,05 56 82 07 23,05 56 26 06 95,ce.0331890A@ac-bordeaux.fr,http://www.collegeandernos.fr,ARCACHON,M. VAMPOUILLE,M. LABROUCHE,MME BARTHEL,,1,1,0,1,0,1,0,14,56,,45,,31,,29-05-2015,720,762,823,806,805,44.745953,-1.088021
2014,0331891B,04-02-1971,,CLG,public,Collège Les Lesques,LESPARRE MEDOC,1 Avenue Jean Moulin 33340 Lesparre-Médoc,05 56 41 13 98,05 56 41 66 43,ce.0331891B@ac-bordeaux.fr,http://webetab.ac-bordeaux.fr/college-leslesques/,MEDOC,MME BOIRIE,MME SARRO,M. KIMINOU,,0,0,0,0,0,1,1,,,,,,23,40,29-05-2015,675,665,657,639,617,45.30021,-0.928507
2014,0331895F,19-04-1971,,CLG,public,Collège Montaigne,LORMONT,,05 56 06 12 67,05 57 77 36 50,ce.0331895F@ac-bordeaux.fr,http://www.college-montaigne.fr,BORDEAUX RIVE DROITE,M. LASCAUX,MME LABASTE,MME MADELEINE,Zone urbaine sensible (ZUS),1,0,0,0,0,0,1,10,,,,,,29,29-05-2015,324,297,277,281,321,,
2014,0333274E,01-09-2012,,CLG,public,Collège Rosa Bonheur à Bruges,BRUGES,57 Rue Jean Claudeville 33520 Bruges,05 56 80 00 06,05 56 80 66 57,ce.0333274E@ac-bordeaux.fr,http://webetab.ac-bordeaux.fr/college-bruges/,BORDEAUX NORD,MME BOZON,,M. MUNSCH,,0,0,0,1,0,0,1,,,,48,,,49,29-05-2015,382,322,200,,,44.873297,-0.587669
2014,0333287U,01-09-2013,,CLG,public,Collège de Lacanau,LACANAU,Allée du Collège 33680 Lacanau,05 57 17 70 40,05 57 17 70 44,ce.0333287U@ac-bordeaux.fr,http://www.collegelacanau.fr,MEDOC,M. JOUBERT,,MME GRUMBERG,,0,0,0,0,0,1,1,,,,,,20,15,29-05-2015,466,,,,,44.986616,-1.089166
