Id,DATE_DERNIERE_MAJ,TYPE,CATEGORIE,SPECIALITES,NOM_OFFRE,PORTE_ESCALIER,BATIMENT_RESIDENCE,RUE,LIEUDIT_BP,CODE_POSTAL,COMMUNE,COMMUNE_INSEE,TEL,TEL_MOB,MEL,SITE_WEB,LONGITUDE,LATITUDE,GEOLOC_MANUELLE,LABEL_TOURISME_HANDICAP,MARQUES_LABELS,CHAINES,LOGIS_CLASSEMENT,NBRE_MAX_COUVERTS,OUVERTURE,TARIFS,EQUIPEMENTS,SERVICES
RESAQU040FS0003J,03/01/2020,Hôtel restaurant,Restaurant traditionnel,Cuisine traditionnelle, Auberge des pins,70 Route de Luglon,70 route de Luglon 40630 SABRES,,,40630,SABRES,40246,+33 5 58 08 30 00,+33 6 30 13 04 59,aubergedespins@wanadoo.fr,http://www.aubergedespins.fr, -0.7415180,44.1457485,,,,Confrérie de la chaîne des rôtisseurs # Eurotoques # Les Collectionneurs,,130,28/01/2020|31/12/2020|||||,,Bar # Jardin # Jeux pour enfants # Matériel enfant # Parc # Parking privé # Salle(s) de réunion # Terrasse,Banquet # Panier randonneur # Plats à emporter # Séminaire # Wifi
RESAQU064FS0001K,03/01/2020,Restaurant,Restaurant traditionnel,Régionale française, Auberge Du Saumon,,,Avenue de la Gare,,64390,SAUVETERRE-DE-BEARN,64513,+33 5 59 38 53 20,,,, -0.9426837,43.3911986,Oui,,,,,75,,,Jardin # Jeux pour enfants # Parc # Parking privé # Terrasse,Banquet
RESAQU064V5058L8,03/01/2020,Restaurant,Brasserie,Cuisine traditionnelle, Bar brasserie du parc,,,1 avenue Léon Bonnat,,64100,BAYONNE,64102,+33 5 59 25 67 86,,,, -1.4771017,43.4943309,Oui,,,,,,,,,
RESAQU024V5053NP,03/01/2020,Restaurant,Bistrot / bar à vin # Brasserie # Restauration rapide,Salades # Sandwichs, Bistrot des Amis,9 Place Eugène Leroy,,,,24190,NEUVIC,24309,+33 5 53 82 13 54,,famille.melinou@free.fr,,0.46895720,45.1006600,Oui,,,,,55,02/01/2020|31/12/2020|||||,"Menu enfant|6,00|| # Menu adulte|7,50|13,00|Formule midi et soir # A la carte|4,50||",Bar # Terrasse,Plats à emporter # Wifi
RESAQU024FS0004H,23/01/2020,Hôtel restaurant,Restaurant gastronomique,Cuisine gastronomique, Hotel Edward 1er - Restaurant Eléonore,,,5 rue St Pierre,,24540,MONPAZIER,24280,+33 5 53 22 44 00,,info@restauranteleonore.com,http://www.restauranteleonore.com ,0.89340879,44.6790357,Oui,Handicap auditif # Handicap mental # Handicap moteur # Handicap visuel,,Les Collectionneurs,,28,26/03/2020|15/11/2020|12:00|14:00|19:00|21:00|,"Menu enfant|12,50|31,50|jusqu'à 10 ans # Menu adulte|32,00|53,00|",Climatisation # Parking privé,Wifi
RESAQU024FS0008M,03/01/2020,Hôtel restaurant,Restaurant gastronomique # Restaurant traditionnel,Cuisine européenne # Cuisine gastronomique # Cuisine végétarienne # Poisson / fruits de mer # Viandes, La Bastide,,,Route de Cahors,,24550,VILLEFRANCHE-DU-PERIGORD,24585,+33 5 53 30 22 67,,hotellabastide@orange.fr,http://www.hotellabastide.fr,1.08046888,44.6289928,Oui,,Qualité Tourisme,,,24,,,Terrasse,Wifi
RESAQU033FS000MU,14/01/2020,Hôtel restaurant,Restaurant traditionnel,Cuisine traditionnelle # Régionale française, Le Domaine du Pont de l'Eyre,,,2 route de Minoy,,33770,SALLES,33498,+33 5 56 88 35 00,,contact@domainedupontdeleyre.eu,http://www.domainedupontdeleyre.eu, -0.8727750,44.5479308,Oui,,,,,50,01/01/2020|31/12/2020|||||Dimanche,"Menu adulte||13,50| # A la carte|18,50|38,00|",Parc # Parking privé # Terrasse,Séminaire # Wifi
RESAQU064V5AESWV,07/01/2020,Restaurant,Brasserie,Cuisine traditionnelle, Le Georges,,,Place Georges Clémenceau,,64200,BIARRITZ,64122,+33 5 82 84 07 71,,,, -1.561867,43.48232,Oui,,,,,,01/01/2020|31/12/2020|||||,"Menu adulte|6,00|15,00|",,
RESAQU024V50033N,28/04/2016,Restaurant,Restaurant traditionnel,Cuisine traditionnelle, Le Relais des Sports,,,le bourg,,24450,FIRBEIX,24180,,,,,0.9025080,45.5506890,,,,,,,,,,
RESAQU064V58O08L,03/01/2020,Restaurant,Bistrot / bar à vin # Brasserie,Cuisine européenne, Le Shtruk,,,1 Square Georges V,,64000,PAU,64445,+33 9 53 87 98 48,,,, -0.36805,43.29358,Oui,,,,,20,02/01/2020|31/12/2020|08:30|||21:30| # ||08:30|||21:30|,"Menu adulte|10,00|10,00| # A la carte|5,00|17,00|",Bar # Terrasse,Wifi
RESAQU024FS000II,02/01/2018,Hôtel restaurant,Restaurant traditionnel,Cuisine gastronomique # Cuisine traditionnelle, L'Ecluse,,,Route de limoges,,24420,ANTONNE-ET-TRIGONANT,24011,+33 5 53 06 00 04,,contact@ecluse-perigord.com,http://www.ecluse-perigord.com,0.8362745,45.2182518,,,,,,200,,,Ascenseur # Parc # Parking privé # Terrasse,Banquet # Séminaire # Wifi
RESAQU064FS000QV,29/01/2020,Restaurant,Brasserie,Cuisine traditionnelle, Les Colonnes - Le Berry de Biarritz,,,4 avenue Edouard VII,,64200,BIARRITZ,64122,+33 5 59 24 44 45,,,, -1.5585252,43.4823876,,,,,,,01/01/2020|31/12/2020|||||,"A la carte|5,00|25,00|",Terrasse,
RESAQU033V50OUVC,03/01/2020,Restaurant,Brasserie # Cidrerie # Crêperie,Glaces # Régionale française, L'Hermine Blanche,,,16 avenue Pasteur,,33510,ANDERNOS-LES-BAINS,33005,+33 5 56 82 55 63,+33 6 21 09 00 32,c.michel44390@gmail.com,, -1.098224,44.741482,Oui,,,,,38,01/01/2020|31/12/2020|||||,"A la carte|2,40|12,00| # Menu adulte|15,00|25,00|",Bar # Climatisation # Parc # Terrasse,Wifi
RESAQU064FS000K7,03/01/2020,Restaurant,Restaurant traditionnel,Cuisine méditerranéenne # Poisson / fruits de mer, Mona Lisa Caffé-Ristorante-Pizzeria,,,54-56 quai des Corsaires,,64100,BAYONNE,64102,+33 5 59 59 48 31,,,, -1.4737401,43.4920049,,,,,,76,01/01/2020|31/12/2020|12:00|14:30|19:00|22:30|Dimanche,"A la carte|||Plat # Menu adulte|12,90||",Bar # Terrasse,Plats à emporter # Wifi
RESAQU064FS001C5,30/01/2019,Restaurant,Restaurant traditionnel,Cuisine traditionnelle # Régionale française,"""Chez Salis"" Les Routiers",,,Route de Bordeaux,,64121,SERRES-CASTET,64519,+33 5 59 33 91 06,,,, -0.3801441,43.3902358,Oui,,,,,120,,,Bar # Climatisation # Parking privé,Banquet
RESAQU024V50D5SK,03/01/2020,Restaurant,Restaurant traditionnel,Cuisine traditionnelle # Salades # Tartes # Viandes,1 Pied dans l'eau,,,"1,Place des Omnibus",,24290,MONTIGNAC,24291,,+33 6 59 17 86 34,,,1.163082,45.066138,Oui,,,,,,,,,
RESAQU064V5058JI,03/01/2020,Restaurant,Restaurant traditionnel,Cuisine traditionnelle,14 quai Bergeret,,,14 quai Bergeret,,64100,BAYONNE,64102,+33 5 59 52 37 12,,,, -1.4681554,43.4934343,,,,,,,,,,
RESAQU064FS000P8,21/01/2020,Restaurant,Restaurant à thème,Cuisine sud-américaine # Cuisine végétarienne,3 Salsas (les),,,5 rue Harispe,,64200,BIARRITZ,64122,+33 5 59 23 04 53,,eurl3j@gmail.com,https://www.3salsas.fr/, -1.5642687,43.4742321,,,,,,,01/01/2020|31/12/2020|||||,"A la carte|5,00|16,00|",Terrasse,
RESAQU040V50NPAP,14/01/2020,Restaurant,Restauration rapide # Salon de thé,Salades # Sandwichs,3eme Vague,,,10 rue de la poste,,40200,MIMIZAN,40184,,,3emevague@gmail.com,, -1.2934209,44.2140416,Non,,,,,,08/02/2020|27/12/2020|||||,A la carte|||,Terrasse,Plats à emporter # Wifi
RESAQU024V509SIK,02/01/2018,Restaurant,Restaurant traditionnel,Cuisine traditionnelle # Régionale française,66 degrès,,,18 bis rue Gambetta,,24000,PERIGUEUX,24322,,+33 6 46 03 08 85,,,0.71793668,45.1859806,Oui,,,,,,,,,
RESAQU064V507T3G,10/01/2020,Restaurant,Restaurant à thème,Cuisine asiatique,7 et 7 ,,,5 rue Nogué ,,64000,PAU,64445,+33 5 24 89 30 83,,sysaath@hotmail.fr,, -0.3704132,43.2996187,Oui,,,,,34,02/01/2020|31/12/2020|12:30|14:30|17:30|21:30|Dimanche,"Menu adulte|9,90|17,90|Menu du midi",Climatisation,Wifi
RESAQU064V508RPV,03/01/2020,Restaurant,Restaurant à thème,Cuisine européenne,A casa Lusitana,,,24 rue d'Espagne,,64200,BIARRITZ,64122,+33 5 59 22 56 99,,,, -1.5649849,43.4759314,Oui,,,,,30,01/01/2020|31/12/2020|||||,"A la carte|13,00|25,00|",Bar,Banquet # Wifi
RESAQU064FS000JR,04/01/2020,Restaurant,Crêperie,Régionale française,A La Bolée,,,10 place pasteur,,64100,BAYONNE,64102,+33 5 59 59 18 75,,alabolee@wanadoo.fr,https://www.alabolee.fr/, -1.4769721,43.4907313,,,,,,46,01/01/2020|31/12/2020|12:00|||22:00|Lundi,"Menu adulte|12,00|16,00|Panier moyen # Menu enfant|7,80||",Terrasse,
RESAQU064FS001J4,08/01/2020,Restaurant,Restaurant traditionnel,Cuisine traditionnelle # Salades,A la bonne Franquette,,,10 avenue de la Gare,,64200,BIARRITZ,64122,+33 5 59 23 49 24,,,, -1.556919,43.478189,Oui,,,,,,01/01/2020|31/12/2020|||||,"A la carte|5,00|15,00|",Terrasse,
RESAQU033V500JP3,13/01/2020,Restaurant,Restaurant traditionnel,Poisson / fruits de mer,A la Bonne Franquette,,,Cabane n°8 Port de Claouey,Claouey,33950,LEGE-CAP-FERRET,33236,+33 5 56 60 72 06,,,, -1.1738061,44.7454167,,,,,,80,01/01/2020|31/12/2020|||||,,,
RESAQU064V573P1G,03/01/2020,Restaurant,Bistrot / bar à vin # Brasserie # Crêperie # Restaurant traditionnel,Burger # Cuisine européenne # Cuisine traditionnelle # Fromagerie # Glaces # Salades # Tapas # Viandes,A la bonne franquette,,,Place camps,,64260,LOUVIE-JUZON,64353,+33 5 59 05 87 40,,,, -0.4191223,43.0864061,Oui,,,,,30,02/01/2020|31/12/2020|||||,"Menu adulte|14,00||Menu du jour",Bar # Terrasse,
RESAQU064V50RZAL,03/01/2020,Restaurant,Cafétéria # Restauration rapide,Cuisine traditionnelle # Glaces # Régionale française # Salades # Tartes # Viandes,A la bonne heure,,,183 boulevard de l'Europe,,64230,LESCAR,64335,+33 5 59 77 81 90,,cafdm173@groupe-casino.fr,, -0.4338621,43.3173898,Oui,,,,,400,01/01/2020|31/12/2020|11:30|14:00|18:30|21:00|Dimanche soir,"Menu adulte|9,99|14,99| # Menu enfant|1,95|3,95|",Climatisation # Parking privé # Terrasse,Banquet # Plats à emporter # Traiteur # Wifi
RESAQU064V5AE0Q6,29/01/2020,Restaurant,Restaurant traditionnel,Cuisine traditionnelle,A la cantine,,,13 Rue des Lisses,,64100,BAYONNE,64102,+33 5 59 59 18 22,,alacantine@hotmail.fr,, -1.471611,43.490564,Oui,,,,,40,||07:00|||17:00|,"A la carte|11,00|16,00| # Menu adulte|11,00|13,00|",Jeux pour enfants # Terrasse,Wifi
RESAQU047V504PY3,03/01/2020,Restaurant,Crêperie,Cuisine traditionnelle # Cuisine végétarienne # Glaces # Régionale française,A la Crêpe Rit,,,18 rue Labat,,47200,MARMANDE,47157,+33 5 53 64 68 28,,contact@alacreperit.fr,https://www.creperie-marmande.fr,0.16637370,44.4966170,Oui,,Sourire du Lot-et-Garonne,,,64,01/01/2020|31/12/2020|12:00|14:00|19:00|22:00|Dimanche - Lundi - Mercredi,A la carte|||Galettes # A la carte|||crêpes # A la carte|||glaces # A la carte|||cidre pression ,Terrasse,Plats à emporter
RESAQU024V50325V,30/01/2020,Restaurant,Brasserie # Restaurant traditionnel,Cuisine traditionnelle # Glaces,A la guinguette du Pont de Vicq,,,,Le Pont de Vicq,24480,LE BUISSON-DE-CADOUIN,24068,+33 5 53 22 04 10,,cfz24@orange.fr,http://www.restaurantbardupontdevicq.com,0.90909850,44.8551472,Oui,,,Les Toques du Périgord,,60,,,Bar # Jeux pour enfants # Parking privé # Terrasse,
RESAQU064FS00092,08/01/2020,Restaurant,Brasserie,Cuisine traditionnelle,A La Maison,,,28 Rue Amédée Roussille,,64000,PAU,64445,+33 5 59 06 85 25,,anna.foncier@wanadoo.fr,http://www.restaurantalamaison.com, -0.3825484,43.2934595,,,,,,90,02/01/2020|31/12/2020|12:00|14:00|19:30|22:00|Dimanche - Lundi,"A la carte|18,00|30,00|",Climatisation # Terrasse,
RESAQU033FS001I7,10/01/2020,Restaurant,Restauration rapide,Glaces # Salades # Sandwichs # Tartes,A la Mie Gourmande,,,26 place de la Prévôté,,33670,CREON,33140,+33 5 56 38 79 05,,rafcherif@hotmail.fr,, -0.3483194,44.7749863,Oui,,,,,26,02/01/2020|31/12/2020|||||,,Terrasse,Panier randonneur # Wifi
RESAQU024FS000D7,03/01/2020,Restaurant,Brasserie # Restaurant traditionnel # Restauration rapide,Glaces # Régionale française # Sandwichs # Tapas,A l'ancre de salut,,,Place du port,,24510,LIMEUIL,24240,+33 5 53 63 39 23,,,http://www.alancredesalut.com/,0.88900421,44.8828346,Oui,,,,,40,,,Bar # Terrasse,Plats à emporter
RESAQU033V50CJTI,03/01/2020,Restaurant,Pizzeria,Cuisine européenne,À l'Eau Tonton Pizza,,,3 avenue de l'Hôtel de Ville,,33450,SAINT-SULPICE-ET-CAMEYRAC,33483,+33 5 56 30 83 42,,contact@aleautontonpizza.com,http://www.aleautontonpizza.com/, -0.3914114,44.9099076,,,,,,,01/01/2020|31/12/2020|||||,"A la carte|6,80|11,90|Pizzas",Parking privé # Terrasse,Plats à emporter
RESAQU024V50731R,31/12/2018,Restaurant,Restauration rapide,Cuisine traditionnelle # Tartes,A l'ombre de l'olivier,,,3 place francheville,,24000,PERIGUEUX,24322,,+33 6 13 43 40 81,,,0.7171484,45.1819428,,,,,,,,,,
RESAQU064V58OW4F,31/12/2018,Restaurant,Restaurant traditionnel,Cuisine traditionnelle,A Table !,,,15 avenue du Rayon Vert ,Chambre d'Amour,64600,ANGLET,64024,+33 5 59 52 45 77,,,https://www.restaurantatableanglet.com, -1.5391485,43.5012640,Oui,,,,,,,,Bar # Terrasse,
RESAQU040V50GJKR,29/01/2020,Restaurant,Restaurant traditionnel,Cuisine traditionnelle,A Tirebeste,,,51 route de Bordeaux,,40230,SAINT-VINCENT-DE-TYROSSE,40284,+33 5 58 35 05 74,,a.tirebeste@orange.fr,, -1.3009072,43.6609372,Oui,,,,,50,01/01/2020|31/12/2020|||||,,Bar # Climatisation # Parking privé # Terrasse,Banquet # Séminaire # Traiteur
RESAQU040V50LQLF,03/01/2020,Restaurant,Bistrot / bar à vin,Tapas,A Voste,,,1 Avenue des Pyrénées,,40330,AMOU,40002,,+33 6 60 50 75 09,baravoste@gmail.com,, -0.747144,43.589752,Oui,,,,,,,,,
RESAQU040V50MHWR,19/01/2020,Restaurant,Restauration rapide,Cuisine des Iles # Salades,Accras Délice,,,1 Place Victor Gentille,,40510,SEIGNOSSE,40296,,,,, -1.4311392,43.7079169,Oui,,,,,,,,,
RESAQU040FS0008D,30/01/2020,Hôtel restaurant,Pizzeria # Restaurant traditionnel,Cuisine traditionnelle,"Acqs Hôtel Restaurant Chez ""Fan""",,,6 avenue de la gare,,40100,DAX,40088,+33 5 58 90 02 62,,acqshotel@gmail.com,, -1.0517628,43.7197794,Oui,,,,,,02/01/2020|30/12/2020|12:00|14:00|19:00|21:00|Dimanche midi,"Menu adulte|15,00|15,00|Menu du jour : entrée + plat + dessert # Menu adulte|19,00|35,00|",Bar # Parking privé # Terrasse,
RESAQU033V50LDES,20/01/2020,Restaurant,Restaurant gastronomique,Cuisine asiatique # Cuisine traditionnelle,Adèle x Maison Darroze,,,Château Malromé,,33490,SAINT-ANDRE-DU-BOIS,33367,+33 5 57 98 38 24,,adele@darroze.com,https://adele.malrome.com/, -0.213018,44.602386,Oui,,,,,,01/01/2020|31/12/2020|||||,"A la carte|8,00|36,00|",Jardin # Terrasse,
RESAQU024V50DRBM,03/01/2020,Restaurant,Restaurant à thème,Cuisine asiatique # Cuisine indienne # Cuisine méditerranéenne,Afghan Tawakal,,,4 Avenue Daumesnil,,24000,PERIGUEUX,24322,,+33 7 67 58 88 16,,,0.72384284,45.1838376,Oui,,,,,,,,,
RESAQU064FS000JS,03/01/2020,Restaurant,Restaurant à thème,Cuisine africaine,Agadir,,,3 rue Sainte Catherine,,64100,BAYONNE,64102,+33 5 59 55 66 56,,,, -1.4691780,43.4957107,,,,,,100,,,Terrasse,Banquet # Séminaire # Traiteur
RESAQU064FS000EB,03/01/2020,Restaurant,Restaurant traditionnel,Cuisine traditionnelle # Poisson / fruits de mer # Régionale française # Tapas # Viandes,Aguerria,,,23 rue de la Glacière,,64700,HENDAYE,64260,+33 5 59 20 04 76,,aguerria@yahoo.fr    ,http://www.restaurant-aguerria.com , -1.7480814,43.3726676,Oui,,,,,500,,,Bar # Jardin # Parking privé # Terrasse,Banquet # Séminaire # Wifi
RESAQU064FS001SP,03/01/2020,Restaurant,Restaurant traditionnel,Nouvelle cuisine française,Ahizpak,,,Avenue de Biarritz,,64210,BIDART,64125,+33 5 59 22 58 81,,,, -1.5741350,43.4516300,,,Restaurant de Qualité,,,,,,Terrasse,
RESAQU064V503AVD,29/01/2020,Restaurant,Restaurant à thème,Burger # Sandwichs,Ailleurs,,,30 avenue Victor Hugo,,64200,BIARRITZ,64122,,+33 6 82 11 84 88,contact@bonheurhamburger.com,http://www.bonheurhamburger.com/ # http://pratique.tourisme64.com/restaurant/biarritz/bonheur/RESAQU064V503AVD.html , -1.5621313,43.4798155,Oui,,,,,,01/01/2020|31/12/2020||||| # ||12:00|15:30|19:00|23:00|,"A la carte|4,00|22,00|",,
RESAQU047FS0005K,03/01/2020,Traiteur (sans restaurant),Restaurant traditionnel,Cuisine bio # Cuisine gastronomique # Cuisine traditionnelle # Régionale française # Viandes,Ajas Traiteur,,,Le bourg,,47380,TOMBEBOEUF,47309,+33 5 53 88 25 28,+33 6 85 59 99 90,yoann@ajas-traiteur.fr,http://www.ajas-traiteur.fr,0.4519499,44.5064287,,,,,,2000,01/01/2020|31/12/2020|||||,,,Banquet # Panier randonneur # Plats à emporter # Séminaire # Traiteur
RESAQU047FS0000S,30/01/2020,Restaurant,Pizzeria # Restaurant traditionnel,Cuisine méditerranéenne # Cuisine traditionnelle,Al Dente,,,11 rue Molinier,,47000,AGEN,47001,+33 5 53 48 03 32,,alexetdelphine@hotmail.fr,,0.6187444,44.2058614,,,,,,36,,"A la carte|11,50|25,00| # Menu adulte|12,00|12,00|Plat du jour # Menu enfant|7,50|7,50| # Menu adulte|18,00|18,00|Formule midi : entrée + plat + dessert",Climatisation # Matériel enfant # Terrasse,Banquet # Plats à emporter
RESAQU024V500KPB,02/01/2018,Restaurant,Restaurant à thème # Restauration rapide,Cuisine méditerranéenne,Al mosaic,,,94 bis avenue du maréchal Juin,,24000,PERIGUEUX,24322,+33 5 53 46 69 20,,,,0.7096356,45.1847943,,,,,,,,,,
RESAQU064V5AEXLZ,03/01/2020,Restaurant,Restaurant traditionnel,Cuisine traditionnelle,Alanvie,,,7 Rue des Mésanges,,64200,BIARRITZ,64122,+33 5 59 56 79 89,,,, -1.538742,43.460674,Oui,,,,,,01/01/2020|31/12/2020|12:00|13:30|||Jeudi après midi - Jeudi matin - Jeudi soir - Lundi après midi - Lundi matin - Lundi soir - Mardi après midi - Mardi matin - Mardi soir - Mercredi après midi - Mercredi matin - Mercredi soir - Vendredi après midi - Vendredi matin - Vendredi soir,"Menu adulte|12,00|14,00|",,
RESAQU064V5058O0,03/01/2020,Restaurant,Restauration rapide,Cuisine traditionnelle,Ali Baba,,,1 rue Sainte Ursule,,64100,BAYONNE,64102,+33 5 59 50 28 92,,,, -1.4707846,43.4960854,Oui,,,,,,,,,Plats à emporter
RESAQU040FS000AF,03/01/2020,Hôtel restaurant,Restaurant traditionnel,Cuisine traditionnelle # Poisson / fruits de mer # Régionale française,Alios ,,,129 avenue de la forêt de Maucor,,40500,BAS-MAUCO,40026,+33 5 58 76 44 00,,info@hotel-alios.com,http://www.hotel-alios.com, -0.5605602,43.7917293,Oui,,,,,150,06/01/2020|31/07/2020||||| # 24/08/2020|18/12/2020|12:00|13:30|19:00|22:00|Dimanche soir - Samedi - Vendredi soir,"Menu adulte|26,00|32,00| # Menu enfant|9,50|12,00| # A la carte|20,00|35,00| # Menu adulte|13,00|13,00|Menu du jour à midi du lundi au vendredi",Bar # Climatisation # Jeux pour enfants # Terrasse,Banquet # Séminaire # Wifi
RESAQU064V5AF4VS,08/01/2020,Restaurant,Restaurant à thème,Cuisine asiatique,Allo Dynastie,,,Avenue Didier Daurat,,64140,LONS,64348,+33 5 59 30 29 49,+33 7 61 59 79 42,,, -0.379806,43.336389,Oui,,,,,,01/01/2020|31/12/2020|12:00|15:00|19:00|23:00|,"Menu adulte|10,60|48,00|",,Commande en ligne # Plats à emporter
RESAQU024V500KRA,01/01/2017,Restaurant,Pizzeria,Cuisine méditerranéenne,Allo pizza les clowns,,,4 cours fénelon,,24000,PERIGUEUX,24322,+33 5 53 35 26 26,,,,0.7199835,45.1820120,,,,,,,,,,
RESAQU064FS000C0,29/01/2020,Restaurant,Restaurant traditionnel,Régionale française,Amarys,,Aéroport de Parme,45 Boulevard Marcel Dassault,,64200,BIARRITZ,64122,+33 5 59 01 04 04,,amarys.biarritz@wanadoo.fr,http://www.amarys-biarritz.com, -1.5441966,43.4636797,Oui,,Maître Restaurateur,,,70,01/01/2020|31/12/2020|||||,"Menu adulte|9,00|14,50|formule express le midi",Parking privé # Terrasse,Wifi
RESAQU040V50NBA4,13/01/2020,Restaurant,Restaurant traditionnel,Cuisine diététique,AmaZone Café,,Centre Commercial les Gourbets,4 Avenue de l'Océan,,40660,MOLIETS-ET-MAA,40187,+33 5 40 77 18 34,,,https://amazonecafe.com, -1.3862873,43.8514095,Oui,,,,,,01/01/2020|31/12/2020|||||,,Terrasse,
RESAQU033FS000NJ,03/01/2020,Restaurant,Bistrot / bar à vin # Brasserie # Restaurant traditionnel,Cuisine traditionnelle,Amelia Canta,,,2 place de l'Eglise Monolithe,,33330,SAINT-EMILION,33394,+33 5 57 74 48 03,,ameliacanta@orange.fr,http://www.ameliacanta.com, -0.1560159,44.8933305,Oui,,Vignobles et découvertes,,,260,01/01/2020|31/12/2020|||||,"A la carte|4,00||Vin au verre # A la carte|12,00||Bouteille de vin # Menu adulte|15,00||",Climatisation # Matériel enfant # Terrasse,Séminaire # Wifi
RESAQU064V50ECM9,21/01/2020,Restaurant,Restauration rapide,Tapas,Amuse Gueule (L'),,,Halles Centralles,,64200,BIARRITZ,64122,+33 8 99 23 59 91,,,, -1.5586260,43.4831519,,,,,,,01/01/2020|31/12/2020|||||,"A la carte|1,50|12,00|",,
RESAQU024V503I1N,23/01/2020,Restaurant,Restaurant à thème,Cuisine sud-américaine # Poisson / fruits de mer,Andine,,,Place Gambetta,,24500,EYMET,24167,+33 9 81 18 33 41,,andine.eymet@gmail.com,http://www.andine.eu,0.39655299,44.6672364,Oui,,,,,45,,"Menu adulte|||Plat du jour # Menu adulte|||Plat + dessert # Menu adulte|||prix moyen du repas à la carte # Menu enfant|||jusqu'à 10 ans - filet de poisson croustillant, frites, glace",Climatisation # Terrasse,Plats à emporter # Wifi
RESAQU064FS0015U,03/01/2020,Restaurant,Restaurant à thème,Cuisine asiatique,Andong Meas,,,7 rue de Foix,,64000,PAU,64445,+33 5 59 27 75 15,,,, -0.3720896,43.2949280,,,,,,36,02/01/2020|31/12/2020|12:00|13:30|19:00|22:00|Lundi,"Menu adulte|15,00|25,00|",,
RESAQU024V500KW3,01/01/2017,Restaurant,Pizzeria # Restauration rapide,Salades,Appel pizza,,,48 rue chanzy,,24000,PERIGUEUX,24322,+33 5 53 07 61 69,,,,0.7107407,45.1844039,,,,,,,,,,
RESAQU033V50HUIB,03/01/2020,Restauration ambulante / Vente à emporter ,Pizzeria,Cuisine européenne,Appia Pizza,Parking Intermarché,,Pont de Rose,,33550,LANGOIRAN,33226,+33 5 56 67 29 90,,,http://www.appia-pizza.fr/, -0.3949920,44.712836,Oui,,,,,,01/01/2020|31/12/2020|||||,"A la carte|9,00|17,50|",,
RESAQU040V505RN0,03/01/2020,Restauration ambulante / Vente à emporter ,Pizzeria # Restauration rapide,Cuisine traditionnelle,Arènes Pizza,,,135 impasse des arènes,,40260,CASTETS,40075,+33 5 58 90 86 74,+33 6 30 19 00 04,francoise.attalin@orange.fr,, -1.1391767,43.8833888,Oui,,,,,,01/01/2020|31/12/2020|||||,,,
RESAQU024V5004XC,03/01/2020,Restaurant,Restaurant à thème,Poisson / fruits de mer,Arêtes et Vous,,,15 rue Mounet Sully,,24100,BERGERAC,24037,+33 5 53 24 35 46,,accueil@gentilhommiere-etincelles.com,,0.48247739,44.8531379,Oui,,,,,28,,"Menu adulte||| menu confiance - 4 plats (37€)formule déjeuner 14,50-17 euros # Menu enfant|||jusqu'à 9 ans",Terrasse,
RESAQU047V50E16C,03/01/2020,Restaurant,Restaurant traditionnel,Nouvelle cuisine française,Arôme,,,46 Rue Molinier,,47000,AGEN,47001,+33 5 53 86 31 80,,,,0.620222,44.206043,Oui,,,,,33,01/01/2020|31/12/2020|12:00|14:00|19:30|21:30|Lundi - Mardi,"A la carte|15,00|20,00|le midi # A la carte|30,00|35,00|le soir",Climatisation # Terrasse,Wifi
RESAQU064V505P6X,03/01/2020,Restaurant,Restaurant gastronomique,Cuisine gastronomique,Arraditz,,,2 rue cachau,,64230,LESCAR,64335,+33 5 59 32 31 40,,contact@arraditz.com,http://www.arraditz.com, -0.4369358,43.3325426,Oui,,Restaurant de Qualité,,,80,01/01/2020|31/12/2020|12:00|14:30|20:00|21:30|Dimanche soir - Lundi - Mardi,"Menu adulte|24,00|68,00| # A la carte|18,00|29,00|",Climatisation # Parking privé # Terrasse,Banquet # Séminaire # Wifi
RESAQU064V502H5T,30/01/2019,Restaurant,Restaurant traditionnel,Cuisine traditionnelle # Tapas,"Arrain Bela, Le Poisson à Voile",,,118 avenue de l'Adour,Port de plaisance,64600,ANGLET,64024,+33 5 59 29 63 39,,,, -1.5079949,43.5249108,Oui,,,,,,,,Bar # Terrasse,
RESAQU064FS000FM,03/01/2020,Restaurant,Restaurant traditionnel,Cuisine traditionnelle # Régionale française,Arraina,,,39 boulevard du Cdt Passicot,,64500,CIBOURE,64189,+33 5 59 47 98 60,,marieduran@live.fr,, -1.6850119,43.3934751,Oui,,,,,60,,,Terrasse,Banquet # Séminaire
RESAQU064FS000WR,03/01/2020,Restaurant,Restaurant traditionnel,Cuisine traditionnelle # Poisson / fruits de mer,Arrantzaleak,,,18 avenue Jean Poulou,,64500,CIBOURE,64189,+33 5 59 47 10 75,,,, -1.6637268,43.3832331,Oui,,,,,130,,,Bar,Banquet # Plats à emporter # Séminaire
RESAQU064FS000SF,03/01/2020,Restaurant,Brasserie # Pizzeria,Cuisine traditionnelle,Arroka,,,2 rue Gardères,,64200,BIARRITZ,64122,+33 5 59 24 19 60,,,http://www.arroka-biarritz.fr, -1.5596641,43.4829568,,,,,,,01/01/2020|31/12/2020|||||,"A la carte|6,00|17,00|",,
RESAQU047V50CA3R,29/01/2020,Restaurant,Restauration rapide # Salon de thé,Cuisine européenne # Glaces # Régionale française # Salades # Sandwichs # Tartes,Art Coffee Break,,,5 avenue des Martyrs de la Résistance,,47200,MARMANDE,47157,,+33 6 50 03 87 08 # +33 6 15 95 68 82,artcoffeebreak47@gmail.com,,0.15941050,44.5092727,Oui,,,,,40,01/01/2020|31/12/2020|09:30|||18:30|Dimanche - Samedi matin,"Menu adulte|9,50|12,50|",Bar # Climatisation # Jeux pour enfants # Matériel enfant # Parking privé # Salle(s) de réunion # Terrasse,Panier randonneur # Séminaire # Traiteur # Wifi
RESAQU033V503EBX,03/01/2020,Restaurant,Restaurant traditionnel # Restauration rapide,Régionale française # Salades # Tapas # Tartes,Arthé Café,,,23 place de la Cathédrale,,33430,BAZAS,33036,+33 5 56 25 41 06,+33 6 30 74 53 60,arthe.cafe@orange.fr,http://arthe.cafe.monsite-orange.fr, -0.2112534,44.4316362,Oui,,,,,60,01/01/2020|31/12/2020|||||,"A la carte|8,50|15,00|",Terrasse,Wifi
RESAQU064V5947LO,08/01/2020,Restaurant,Restaurant traditionnel,Cuisine traditionnelle,Arthur et Compagnie,,,13 Rue Henri IV,,64000,PAU,64445,+33 5 59 27 61 93,,,, -0.37362,43.294567,Oui,,,,,30,02/01/2020|31/12/2020|||||,"Menu adulte|13,00|13,00| # A la carte|9,00|25,00|",Bar # Climatisation,
RESAQU024FS000KW,03/01/2020,Restaurant,Restaurant traditionnel,Cuisine traditionnelle,Artisan Bistrot Le Duo,,,6 avenue de Sarlat,,24590,SALIGNAC-EYVIGUES,24516,+33 5 53 59 29 72,+33 6 83 01 76 75,restaurantleduo.24@gmail.com,,1.32144927,44.9739065,Oui,,,,,50,,Menu adulte|||midi en semaine,Jardin # Jeux pour enfants # Matériel enfant # Parking privé # Terrasse,Wifi
RESAQU064FS000JG,03/01/2020,Restaurant,Restaurant traditionnel,Burger # Cuisine gastronomique # Cuisine traditionnelle # Glaces # Régionale française # Salades # Tartes # Viandes,Arts et Délices,,,13 bis Place de la Cathédrale,,64400,OLORON-SAINTE-MARIE,64422,+33 9 54 58 39 84,,artsetdelices.oloron@gmail.com,, -0.6165750,43.1875837,Oui,,,,,25,01/07/2020|31/08/2020|12:00|14:00|19:00|21:00|Dimanche midi - Lundi,"A la carte|8,90|20,00|",Terrasse,Wifi
RESAQU033FS00196,03/01/2020,Restaurant,Restaurant traditionnel,Cuisine asiatique,Asia Express,,,32 avenue de l'Entre-deux-Mers,,33370,FARGUES-SAINT-HILAIRE,33165,+33 5 56 78 34 90,,,, -0.4494917,44.8245810,,,,,,,01/01/2020|31/12/2020|10:00|13:00|16:30|20:30|Dimanche,,,
RESAQU047V509ZSP,25/01/2020,Restaurant,Restaurant à thème,Cuisine asiatique,Asia Nérac,,,41 route de Bordeaux,,47600,NERAC,47195,+33 5 47 36 85 37,,nguyenvan.van49@yahoo.fr,,0.33209553,44.1425734,Oui,,,,,25,01/01/2020|31/12/2020|12:00|14:00|19:00|22:00|Mercredi,"Menu adulte|12,00|19,00| # Menu adulte|7,90|7,90|Plat du jour",,Plats à emporter
RESAQU033V50IJIO,03/01/2020,Traiteur (sans restaurant),Restaurant à thème,Cuisine asiatique,Asiabox,,,26 cours de Verdun,,33470,GUJAN-MESTRAS,33199,+33 5 56 54 48 39,,,, -1.0753208,44.6362258,Oui,,,,,,01/01/2020|31/12/2020|||||,,,
RESAQU033FS00095,03/01/2020,Restaurant,Restaurant à thème,Cuisine asiatique,Asie Gourmande,,,22 avenue de Verdun,,33260,LA TESTE-DE-BUCH,33529,+33 5 56 54 93 70,,,http://asiegourmande.com, -1.1535966,44.6345130,Oui,,,,,120,01/01/2020|31/12/2020|||||,,Climatisation # Parking privé,Plats à emporter # Traiteur # Wifi
RESAQU024V50CAHX,31/12/2018,Restaurant,Brasserie,Cuisine gastronomique,Assiettes à la Ferme,,,,Les Bascoups,24510,SAINTE-FOY-DE-LONGAS,24407,,+33 6 81 46 10 51,,,0.72693600,44.9370629,Oui,,,,,,,,,
RESAQU047FS000M5,30/01/2020,Restaurant,Pizzeria # Restauration rapide # Rôtisserie,Cuisine européenne # Cuisine traditionnelle # Glaces # Salades # Sandwichs # Viandes,Asta Pizza,SARL GCT Pizza,,5 place de l'Hôtel de Ville,,47220,ASTAFFORT,47015,+33 5 53 68 37 74,,,,0.65135081,44.0647067,Oui,,,,,6,01/01/2020|31/12/2020|||||,"A la carte|6,00|15,00|",Terrasse,Plats à emporter
RESAQU024V50DK5V,03/01/2020,Restauration ambulante / Vente à emporter ,Restauration rapide,Salades # Sandwichs,Atlas,,,1 Place Yves Guena,,24000,PERIGUEUX,24322,+33 5 53 05 75 88,,contact@atlas-vr.fr,,0.721204,45.18705,Oui,,,,,,,,,
RESAQU024V50B004,03/01/2020,Restaurant,Bistrot / bar à vin,Cuisine traditionnelle,Atypique,,,Petit Lander,,24200,SARLAT-LA-CANEDA,24520,+33 5 53 30 51 31,,,,1.203187,44.915237,Oui,,,,,,01/01/2020|31/12/2020|||||,,,Wifi
RESAQU047FS000BD,03/01/2020,Restaurant,Brasserie # Salon de thé,Cuisine traditionnelle,Au 47,,,63-65 Boulevard Gambetta,,47200,MARMANDE,47157,+33 9 83 97 43 84,,au47.marmande@gmail.com,http://www.pub-au47.fr,0.1673640,44.5023980,,,,,,96,01/01/2020|31/12/2020|06:30||||,,Bar # Climatisation # Terrasse,
RESAQU064FS001I6,03/01/2020,Restaurant,Brasserie # Pizzeria # Restaurant traditionnel # Restauration rapide,Cuisine traditionnelle # Salades # Tapas # Viandes,Au Bar et Tous,,,Rue des Pyrénées,,64570,LANNE-EN-BARETOUS,64310,+33 5 59 34 64 43,,,, -0.7605457,43.1130455,Oui,,,,,40,,Menu adulte|||Menu du jour le midi en semaine,Bar # Terrasse,Banquet # Plats à emporter
RESAQU024V500KVF,01/01/2017,Restaurant,Restaurant traditionnel,Cuisine traditionnelle,Au bassin,,,2 rue Henri Murger,,24000,PERIGUEUX,24322,+33 5 53 05 55 92,,,,0.7040780,45.1841200,,,,,,,,,,
RESAQU040FS000HT,03/01/2020,Restaurant,Restaurant traditionnel,Cuisine traditionnelle # Régionale française # Viandes,Au Bastignac,29 Place Royale,,,,40240,LABASTIDE-D'ARMAGNAC,40131,+33 5 58 75 11 24,,alain.baillou@laposte.net,, -0.1855315,43.970177,Oui,,,,,25,,"A la carte|10,00|20,00|A partir de  # Menu adulte|16,00|35,00|",Bar # Climatisation # Terrasse,Plats à emporter # Wifi
RESAQU024V503KG5,03/01/2020,Restaurant,Restaurant traditionnel,Cuisine traditionnelle # Régionale française,Au Bien Bon Tome II,,,2 rue Montaigne,,24000,PERIGUEUX,24322,+33 9 83 85 09 35,,,,0.7210165,45.1858394,,,,,,44,01/01/2020|31/12/2020|||||Dimanche - Lundi,"A la carte|8,00|16,00| # Menu adulte|25,00||Menu du terroir # Menu adulte|12,50||Formule midi # Menu enfant|9,00||",Terrasse,
RESAQU024FS000DM,03/01/2020,Restaurant,Restaurant traditionnel,Cuisine végétarienne # Régionale française,Au bon accueil,,,Rue du port,,24510,LIMEUIL,24240,+33 5 53 63 30 97,,au-bon-accueil-limeuil@wanadoo.fr,http://www.au-bon-accueil-limeuil.com/,0.8885013,44.8841735,,,,,,75,,,Terrasse,Wifi
RESAQU04001UVT5H,03/01/2020,Restaurant,Restaurant traditionnel,Cuisine traditionnelle,Au Bon coin,,,,,40240,LUBBON,40161,+33 5 58 93 60 43,+33 6 83 55 69 21,resto.au.bon.coin@orange.fr,, -0.0127602,44.1051761,Oui,,,,,,,"Menu adulte|15,00|30,00|",Bar # Terrasse,Plats à emporter
RESAQU064FS0008T,03/01/2020,Restaurant,Restaurant traditionnel,Cuisine traditionnelle,Au Bon Coin,,,125 route de Bordeaux,,64140,LONS,64348,+33 5 59 32 25 99,,,http://www.pauboncoin.com, -0.3794789,43.3394121,Oui,,,,,100,01/01/2020|31/12/2020|12:00|14:00|19:30|22:00|Dimanche soir - Lundi soir - Mardi soir - Mercredi soir,"Menu adulte|11,90|15,00| # A la carte|12,00|30,00| # Menu enfant|8,00|8,00|",Bar # Jardin # Parking privé # Terrasse,
RESAQU04001QBFBZ,03/01/2020,Restaurant,Bistrot / bar à vin # Brasserie # Restaurant traditionnel,Cuisine traditionnelle # Régionale française # Triperies,Au bon coin,,,223 rue du Château,,40300,PEYREHORADE,40224,+33 5 58 73 00 45,,lespiedsdecochon40@orange.fr,, -1.1020454,43.5442552,Oui,,,,,100,01/01/2020|31/12/2020|||||,"Menu adulte|13,00|30,00| # A la carte|13,00|35,00| # Menu enfant||10,00|",Bar # Salle(s) de réunion # Terrasse,Banquet # Traiteur
RESAQU047FS000LR,03/01/2020,Restaurant,Restaurant traditionnel,Cuisine traditionnelle,Au bon coin,,,Avenue Henry Barbusse,,47300,VILLENEUVE-SUR-LOT,47323,+33 5 53 01 99 93,,auboncoin47@orange.fr,,0.7224518,44.3984127,Oui,,,,,276,01/01/2020|31/12/2020|12:00|14:00|||,"Menu adulte|14,00|25,00| # A la carte|9,00|17,00| # Menu enfant|9,00||jusqu'à 11 ans",Bar # Climatisation # Parking privé # Terrasse,Wifi
RESAQU064FS00089,03/01/2020,Hôtel restaurant,Restaurant traditionnel,Régionale française,Au Bon Coin,,,Route des thermes,,64660,LURBE-SAINT-CHRISTAU,64360,+33 5 59 34 40 12,,pro620@hotmail.fr,http://www.hotel-auboncoin.com, -0.5979025,43.1168276,Oui,,,Logis,2 cocottes,70,,"Menu adulte|||Menu du jour le midi en semaine 12,50 €.",Bar # Jardin # Parking privé # Piscine # Terrasse,Banquet # Séminaire # Traiteur # Wifi
RESAQU047FS0001O,03/01/2020,Restaurant,Restaurant traditionnel,Cuisine traditionnelle,Au bord de la source,,,Avenue de Bordeaux,Larrive,47110,SAINTE-LIVRADE-SUR-LOT,47252,+33 5 53 01 36 84,,restaurant@auborddelasource.com,http://www.auborddelasource.com,0.5689878,44.3914163,,,Restaurant de Qualité,,,40,21/01/2020|30/06/2020|12:00|14:00|19:00|22:00|Dimanche soir - Jeudi - Lundi - Mardi - Mercredi # 01/07/2020|31/08/2020|12:00|14:00|19:00|22:00|Lundi # 01/09/2020|31/12/2020|12:00|14:00|19:00|22:00|Dimanche soir - Jeudi - Lundi - Mardi - Mercredi,"Menu adulte|||Midi - Sauf week-end ou jours fériés # Menu adulte|29,00|49,00| # Menu enfant|9,00|15,00|",Bar # Climatisation # Jardin # Matériel enfant # Parking privé # Terrasse,Banquet # Plats à emporter # Séminaire # Traiteur
RESAQU064FS00090,30/01/2020,Restaurant,Restaurant à thème,Poisson / fruits de mer # Viandes,Au Bord de l'Eau,,,Rue de la Gravière,La Saligue,64140,BILLERE,64129,+33 5 59 62 15 62,,auborddeleau64@orange.fr,http://www.aubordeleau.fr/, -0.4009366,43.2954336,Oui,,,,,70,01/01/2020|31/12/2020|12:00|14:00|19:30|22:00|Dimanche,"Menu adulte|30,00|40,00| # A la carte|19,00|54,00|",Climatisation # Jeux pour enfants # Parc # Parking privé # Terrasse,
RESAQU040FS000P0,06/01/2020,Restauration ambulante / Vente à emporter ,Restauration rapide,Sandwichs,Au Bord de l'O,,,18 chemin de maguide,,40600,BISCARROSSE,40046,,+33 7 85 71 18 94,contact@idylle-plage.com,, -1.2007176,44.4576888,Oui,,,,,60,04/04/2020|27/09/2020|||||,,Terrasse,Plats à emporter # Wifi
RESAQU064FS001SI,21/01/2020,Restaurant,Bistrot / bar à vin # Restaurant traditionnel,Cuisine traditionnelle,Au Bouchon Basque,,,2 rue Paul Pras,,64100,BAYONNE,64102,+33 5 59 57 75 18,,aubouchonbasque@gmail.com,http://www.aubouchonbasque.fr, -1.4762831,43.4852235,Oui,,,,,,01/01/2020|31/12/2020|||||,,Bar # Terrasse,Banquet # Séminaire # Wifi
RESAQU047FS0006A,25/01/2020,Restaurant,Restaurant traditionnel,Cuisine traditionnelle # Régionale française # Tapas,Au bout du monde,,,9 place du Centre,,47600,FRANCESCAS,47102,+33 5 53 97 13 17,,,,0.42785658,44.0636125,Oui,,,,,40,01/01/2020|31/12/2020|||||Dimanche,"Menu adulte|13,50|13,50|Menu du jour le midi : entrée, plat, dessert # Menu adulte|20,00|20,00|Menu le soir et week-end : entrée, plat, dessert",Bar # Terrasse,Wifi
RESAQU064V5057ZZ,03/01/2020,Restaurant,Brasserie,Cuisine traditionnelle,Au buffet,,,10 place André Emlinger,,64100,BAYONNE,64102,+33 5 59 63 07 50,,,, -1.4936301,43.4923681,Oui,,,,,,,,,
RESAQU064V52Z5JF,02/01/2018,Restaurant,Brasserie,Cuisine traditionnelle,Au bureau,,,1 B avenue de Maignon,,64600,ANGLET,64024,+33 5 59 64 60 41,,,http://www.facebook.com/aubureauanglet/, -1.5093117,43.4815751,Oui,,,,,,,,Bar # Terrasse,
RESAQU064V57QMVQ,16/01/2020,Restaurant,Brasserie,Cuisine traditionnelle,Au Bureau,,,40 avenue Louis Sallenave,,64000,PAU,64445,+33 5 59 90 64 43,,,, -0.3610526,43.3152242,Oui,Handicap auditif # Handicap mental # Handicap moteur # Handicap visuel,,,,130,02/01/2020|31/12/2020|12:00|14:00|||,"Menu adulte|13,00|13,00| # A la carte|9,00|25,00|",Climatisation,
RESAQU033V50CSBO,03/01/2020,Restauration ambulante / Vente à emporter ,Restauration rapide,Tartes,Au chalet gourmand,,,198 avenue de Lattre de Tassigny,,33470,GUJAN-MESTRAS,33199,+33 5 56 54 67 38,,,, -1.0913264,44.6362365,,,,,,,01/01/2020|31/12/2020|||||,"Menu adulte|13,00|13,00|Menu midi. # Menu adulte|18,00|18,00|Menu soir.",,
RESAQU040FS000IF,03/01/2020,Restaurant,Restaurant traditionnel,Cuisine traditionnelle,Au Cheval Blanc,,,42 bis Av. du Général de Gaulle,,40230,TOSSE,40317,+33 5 58 43 01 17,,contact@acbtosse.com,http://www.acbtosse.com, -1.3320140,43.6900088,,,,,,60,,,Bar # Climatisation # Parking privé # Terrasse,Banquet
RESAQU040FS000I1,03/01/2020,Restauration ambulante / Vente à emporter ,Brasserie # Pizzeria # Restauration rapide,Cuisine traditionnelle,Au Cht'Ygos,1 rue d'Albret,,,,40110,YGOS-SAINT-SATURNIN,40333,,+33 6 49 78 64 92,,, -0.7369668,43.9758443,Oui,,,,,32,,,Terrasse,Plats à emporter
RESAQU040FS000NL,03/01/2020,Restaurant,Restaurant traditionnel,Cuisine traditionnelle,Au Coeur des Landes,,,26 route du Marsan,,40090,GAILLERES,40103,+33 5 58 93 69 48,,contact@aucoeurdeslandes.fr,http://www.aucoeurdeslandes.fr, -0.3726660,43.9413475,Oui,,,,,50,,"A la carte|24,00|24,00|Ticket moyen à la carte pour les groupes # Menu adulte|13,50|13,50|Menu du jour",Bar # Climatisation # Matériel enfant # Parking privé # Terrasse,Banquet # Wifi
RESAQU064V5538TX,03/01/2020,Restaurant,Salon de thé,Cuisine traditionnelle # Cuisine végétarienne # Tartes,Au Coin Cosy,,,18 place du Palais,,64370,ARTHEZ-DE-BEARN,64057,+33 9 53 27 22 01,+33 7 81 47 27 74,au.coin.cosy@gmail.com,https://www.aucoincosy.com/, -0.6154254,43.4645073,Oui,,,,,20,01/01/2020|31/12/2020|08:30|||17:00|Dimanche,"Menu adulte|13,00|| # Menu enfant|9,00|| # A la carte|3,50|8,50|",Bar # Jeux pour enfants # Matériel enfant # Parking privé,Wifi
RESAQU024FS000GE,02/01/2018,Restaurant,Pizzeria,Cuisine traditionnelle,Au Coin de la Rue,place st jean,,,,24380,VERGT,24571,+33 5 53 03 70 57,,,,0.71558340,45.0258881,Oui,,,,,20,,,,
RESAQU047FS00055,03/01/2020,Hôtel restaurant,Restaurant gastronomique # Restaurant traditionnel,Cuisine gastronomique # Cuisine traditionnelle # Régionale française,Au Colombier du Touron,,,187 avenue des Landes,,47310,BRAX,47040,+33 5 53 87 87 91,,contact@colombierdutouron.com,http://www.colombierdutouron.com,0.55236899,44.2013542,Oui,,Sourire du Lot-et-Garonne,Logis,2 cheminées # 3 cocottes,60,,,Jardin # Matériel enfant # Parc # Parking privé # Terrasse,Banquet # Séminaire # Wifi
RESAQU064FS00158,30/01/2019,Restaurant,Restaurant traditionnel,Cuisine traditionnelle # Régionale française,Au Comptoir,Hôtel Novotel,,68 avenue d’Espagne,D.811,64600,ANGLET,64024,+33 5 59 58 50 50,,,http://www.facebook.com/novotelbiarritz/, -1.5261203,43.4773867,,,,,,80,,,Ascenseur # Bar # Climatisation # Jardin # Jeux pour enfants # Matériel enfant # Parc # Parking privé # Piscine # Terrasse,Banquet # Séminaire # Wifi
RESAQU033V50JCVK,23/01/2020,Restauration ambulante / Vente à emporter ,Restauration rapide # Salon de thé,Cuisine bio # Cuisine végétarienne # Fromagerie # Régionale française # Salades # Tartes,Au comptoir local ,,,7 rue du Commandant Cousteau ,,33240,SAINT-ANDRE-DE-CUBZAC,33366,+33 9 53 51 29 72,,aucomptoirlocal@gmail.com,, -0.4482964,44.9928501,Oui,,,,,12,02/01/2020|31/12/2020|||||Dimanche après midi - Dimanche matin - Dimanche midi - Dimanche soir - Lundi,"Menu adulte|9,50|12,20| # A la carte|2,80|7,90|",,Plats à emporter
RESAQU064V5AE2WA,03/01/2020,Restaurant,Restauration rapide,Salades # Sandwichs,Au coup' faim,,,12 rue d'Uhart ,,64220,SAINT-JEAN-PIED-DE-PORT,64485,+33 5 59 37 27 61,,,, -1.2378085,43.1614465,Non,,,,,,,,,
RESAQU064FS0019N,03/01/2020,Restaurant,Crêperie # Restaurant à thème # Salon de thé,Tartes,Au déjeuner sur l'herbe,,,17 Place Duhalde,,64250,CAMBO-LES-BAINS,64160,+33 5 59 42 67 17,,julien.stomp@orange.fr,, -1.3992655,43.3603364,Oui,,,,,,02/01/2020|31/12/2020|||||,"Menu adulte|8,50|14,00| # A la carte|6,50|22,00| # Menu enfant|8,50|8,50| # Autre tarif|8,50|8,50|Formule du midi",Climatisation # Terrasse,Plats à emporter # Traiteur # Wifi
RESAQU024FS00076,01/01/2017,Restaurant,Restaurant traditionnel,Cuisine traditionnelle # Régionale française,Au Fer à Cheval,Le Dognon,,,,24420,MAYAC,24262,+33 5 53 05 08 02,,auferacheval.mayac@orange.fr,http://www.restaurant-fer-cheval-mayac.fr,0.94434299,45.2907863,Oui,,,,,70,,,Bar # Jardin # Parking privé # Terrasse,Banquet # Séminaire
RESAQU024FS0005W,03/01/2020,Restaurant,Restaurant traditionnel,Cuisine traditionnelle,Au Fil de l'Eau,,,21 quai Bertin,,24310,BRANTOME EN PERIGORD,24064,+33 5 53 05 73 65,,restaurant@fildeleau.com,,0.64857269,45.3630445,Oui,,,,,60,,"Menu adulte|24,00|31,00|",Terrasse,
RESAQU024FS00055,31/12/2018,Restaurant,Restaurant traditionnel,Poisson / fruits de mer,Au Fil de l'Eau,,,3 rue de la Rouquette,,33220,PORT-SAINTE-FOY-ET-PONCHAPT,24335,+33 5 53 73 83 42,,,,0.21091572,44.8430995,Oui,,,,,60,,,Climatisation # Terrasse,Banquet
RESAQU047FS0009M,03/01/2020,Restaurant,Restaurant traditionnel,Cuisine traditionnelle,Au Fil de l'Eau,,,3 rue du Pont,,47140,SAINT-SYLVESTRE-SUR-LOT,47280,+33 5 53 41 77 28,,,,0.80680847,44.3956461,Oui,,,,,100,01/01/2020|31/12/2020|08:30|15:00|||,"A la carte|12,00|14,00|Plat du jour",Bar # Parking privé # Terrasse,Banquet
RESAQU024FS0006U,03/01/2020,Restaurant,Restaurant traditionnel,Cuisine traditionnelle,Au Fil de l'Eau,,,32 Avenue de Cahors,,24150,COUZE-ET-SAINT-FRONT,24143,+33 5 53 61 79 76,+33 6 03 25 78 35,jeyz24@hotmail.fr,http://www.au-fil-de-leau.net ,0.70419560,44.8285284,Oui,,,,,32,,,Climatisation # Parking privé,
RESAQU064FS0008J,03/01/2020,Restaurant,Salon de thé,Glaces,Au Fil de l'Eau,,,Chemin du moulin,,64390,SAUVETERRE-DE-BEARN,64513,+33 5 59 38 96 95,+33 6 80 51 42 11,,, -0.9392643,43.3980334,Non,,,,,60,01/05/2020|30/09/2020|||||,"A la carte|8,00|8,00|",Jardin # Jeux pour enfants,
RESAQU024FS00067,03/01/2020,Restaurant,Rôtisserie,Régionale française,Au Fil du Temps,,,1 chemin du Vert Galant,,24310,BRANTOME EN PERIGORD,24064,+33 5 53 05 24 12,,restaurant@fildutemps.com,,0.64868926,45.3620615,Oui,,,,,,,"Menu adulte|23,00|40,00|",Bar # Terrasse,Banquet # Séminaire
RESAQU064FS0003U,03/01/2020,Restaurant,Restaurant gastronomique,Cuisine gastronomique,Au Fin Gourmet,,,24 avenue Gaston Lacoste,,64000,PAU,64445,+33 5 59 27 47 71,,contact@restaurant-aufingourmet.com,http://www.restaurant-aufingourmet.com, -0.3685784,43.2925599,Oui,,,,,60,01/01/2020|31/12/2020|12:00|13:30|20:00|21:30|Dimanche soir - Lundi,"Menu adulte|29,00|76,00| # Menu enfant|12,00|12,00|",Climatisation # Jardin # Matériel enfant # Parking privé # Terrasse,Wifi
RESAQU024V507315,01/01/2017,Restaurant,Restauration rapide,Salades # Sandwichs # Tartes,Au fournil de la cité,,,11 place de la cité,,24000,PERIGUEUX,24322,+33 5 53 53 41 03,,,,0.7140620,45.1814548,,,,,,,,,,
RESAQU064V56JL4G,08/01/2020,Restaurant,Bistrot / bar à vin,Tapas,Au Fût et à mesure ,,,31 rue Bernadotte,,64000,PAU,64445,+33 5 59 33 07 22,,pau@aufut.fr,, -0.3743229,43.2972082,Oui,,,,,70,02/01/2020|31/12/2020|||17:00|00:00|,"A la carte|7,50|9,00|Cocktails # A la carte|5,00|5,00|Cocktails ans alcool",Bar # Climatisation,Wifi
RESAQU064FS00123,15/01/2020,Restaurant,Bistrot / bar à vin # Restaurant traditionnel,Cuisine traditionnelle,Au Gochoki,,,41 Avenue du Maréchal Juin,,64200,BIARRITZ,64122,+33 5 59 23 93 36,,,, -1.5407815,43.4719457,,,,,,70,01/01/2020|31/12/2020|||||,"A la carte|8,00|30,00|",Bar,Banquet
RESAQU033V50RLFG,07/01/2020,Restaurant,Bistrot / bar à vin,Tapas,Au Goût'Epic,,,3 rue Jules Ferry,,33680,LACANAU,33214,,+33 6 32 86 72 66,contact.goutepic33@gmail.com,, -1.2004325,45.0034573,Oui,,,,,,01/01/2020|30/06/2020||||| # 01/07/2020|31/08/2020|11:00|||01:00| # 01/09/2020|31/12/2020|||17:00|23:00|Lundi - Mardi,,,
RESAQU064FS001JG,08/01/2020,Restaurant,Bistrot / bar à vin,Régionale française,Au Grain de Raisin,,,11 rue Sully,,64000,PAU,64445,+33 5 59 82 98 44,+33 6 63 45 45 91,grainderaisin64@gmail.com,, -0.3738838,43.2951681,Oui,,,,,40,02/01/2020|31/12/2020|||||,"A la carte|4,50|19,50|",Bar # Terrasse,
RESAQU064FS001IG,03/01/2020,Restaurant,Restaurant à thème,Cuisine asiatique,Au Grand Bonheur,,, Avenue Hippodrome,,64140,LONS,64348,+33 5 59 62 79 32,,,, -0.3825688,43.3291892,Oui,,,,,250,01/01/2020|31/12/2020|12:00|14:30|19:00|22:30|,"Menu adulte|12,90|19,90| # Menu enfant|5,90|5,90|",Bar # Parking privé,Plats à emporter
RESAQU024V50B3J8,17/01/2020,Restaurant,Crêperie,Cuisine traditionnelle,Au gré des saisons,,,,33 avenue de Cahors,24150,COUZE-ET-SAINT-FRONT,24143,+33 5 53 23 88 27,+33 7 86 87 51 51,,http://www.augredessaisons24.eatbu.com,0.70414989,44.8286084,Oui,,,,,36,,Autre tarif|||Plat du jour ,Climatisation # Matériel enfant,
RESAQU024V500KTC,02/01/2018,Restaurant,Pizzeria,Cuisine méditerranéenne,Au gré du vent,,,15 rue Voltaire,,24000,PERIGUEUX,24322,+33 5 53 53 07 39,,,,0.7216359,45.1855031,,,,,,,,,,
RESAQU033V50R7K0,03/01/2020,Restaurant,Bistrot / bar à vin,Cuisine traditionnelle,Au Hangar ,,,340 avenue Denis Papin ,,33260,LA TESTE-DE-BUCH,33529,+33 9 88 09 04 04,,,https://www.au-hangar.fr, -1.1256536,44.6076563,Oui,,,,,,01/01/2020|31/12/2020|||||,,Bar # Terrasse,
RESAQU024FS000J9,15/01/2020,Restaurant,Restaurant gastronomique,Régionale française,Au Jardin d'O,47 avenue victor hugo,,,,24120,TERRASSON-LAVILLEDIEU,24547,+33 5 53 50 19 65,,aujardindo.24120@orange.fr,,1.2987064,45.1300223,Oui,,,,,120,,,,
RESAQU033FS000TO,03/01/2020,Restaurant,Restaurant traditionnel,Cuisine traditionnelle,Au Langonnais,,,78 cours du Mal de Lattre de Tassigny,,33210,LANGON,33227,+33 5 56 76 27 75,,au.langonnais@hotmail.fr,, -0.2447198,44.5501593,Oui,,,,,80,01/01/2020|30/06/2020|12:00|14:00|19:00|21:00|Jeudi soir - Lundi soir - Mardi soir - Mercredi # 01/07/2020|31/08/2020|12:00|14:00|19:00|21:00|Mardi - Mercredi # 01/09/2020|31/12/2020|12:00|14:00|19:00|21:00|Jeudi soir - Lundi soir - Mardi soir - Mercredi,"Menu adulte|12,00|15,00| # Menu adulte|21,00|30,00| # Menu enfant|8,50||",Terrasse,Wifi
RESAQU064V59X1Y3,06/01/2020,Restaurant,Bistrot / bar à vin # Restaurant traditionnel,Cuisine traditionnelle # Régionale française # Tapas,Au Magasin,,,2 rue du Bourguet,,64440,LARUNS,64320,+33 5 59 05 35 63,,,https://www.facebook.com/aumagasinlaruns/, -0.4264442,42.9885085,Oui,,,,,,,"A la carte|6,00|19,00|",Bar # Terrasse,
RESAQU064FS001A0,13/01/2020,Restaurant,Restaurant traditionnel,Cuisine traditionnelle # Régionale française,Au Mai Nuna,,Vacanciel,7 avenue du Docteur Camino,,64250,CAMBO-LES-BAINS,64160,+33 5 59 93 60 00,,cambo@vacanciel.com,http://www.vacanciel.com, -1.4159183,43.3669059,Oui,,,,,80,25/04/2020|31/10/2020|||||,"Menu adulte|24,50|24,50|Midi et soir # Menu enfant|12,00|12,00|De 2 à 13 ans inclus",Bar # Jardin # Jeux pour enfants # Matériel enfant # Parking privé # Piscine # Terrasse,Panier randonneur # Wifi
RESAQU024FS000C5,03/01/2020,Restaurant,Restaurant traditionnel,Régionale française,Au Nid des Thés,,,13 rue Victor Hugo,,24310,BRANTOME EN PERIGORD,24064,+33 5 53 02 75 49,,sandrine@au-nid-des-thes.fr,http://www.au-nid-des-thes.fr,0.64882299,45.3647806,Oui,,,,,24,,,Terrasse,Plats à emporter
RESAQU024V50B00B,03/01/2020,Restaurant,Restaurant traditionnel,Cuisine traditionnelle,Au Panier Garni,,,Route des Presses,,24200,SARLAT-LA-CANEDA,24520,+33 5 53 59 10 01,,,,1.207126,44.92117,Oui,,,,,,01/01/2020|31/12/2020|||||,,,
RESAQU064FS000JU,03/01/2020,Restaurant,Restaurant traditionnel,Poisson / fruits de mer,Au Peita,,,7 avenue Capitaine Resplandy,,64100,BAYONNE,64102,+33 5 59 25 41 35,,aupeita@hotmail.fr,http://aupeita.com/, -1.4666543,43.4891420,Oui,,,,,80,,A la carte|||Plats,Climatisation # Terrasse,Banquet # Séminaire # Wifi
RESAQU040FS0003V,20/01/2020,Restaurant,Brasserie # Restaurant traditionnel,Cuisine traditionnelle # Glaces # Régionale française # Salades # Sandwichs # Tartes # Viandes,Au petit bistrot,12 place Aristide Briand ,,,,40110,MORCENX-LA-NOUVELLE,40197,+33 9 86 20 00 45,,sylvie.buchard@hotmail.fr,, -0.9103748,44.0336197,,,,,,50,,Autre tarif|||ce tarif est le tarif du menu servit toute l'année,Bar # Terrasse,Plats à emporter
RESAQU024V502V2Q,03/01/2020,Restaurant,Crêperie,Glaces,Au Petit Bonheur,Place Bouquier,,,,24120,TERRASSON-LAVILLEDIEU,24547,,,,,1.3048360,45.1270230,,,,,,,,,,
RESAQU024V506Q3H,03/01/2020,Restaurant,Restaurant traditionnel,Cuisine européenne # Cuisine traditionnelle # Poisson / fruits de mer # Régionale française # Salades # Sandwichs # Viandes,Au Petit Gourmand,Le Bourg,,,,24590,BORREZE,24050,+33 9 53 34 25 23,+33 6 81 82 92 71,aupetitgourmand24590@gmail.com,,1.38772700,44.954661,Oui,,,,,70,,Menu adulte|||Menu du jour,Matériel enfant,Banquet # Plats à emporter # Wifi
RESAQU040FS000LU,03/01/2020,Restaurant,Restaurant traditionnel,Régionale française,Au petit resto,,,158 rue Pascal Duprat,,40630,SABRES,40246,+33 5 58 04 85 49,,aupetitresto@yahoo.fr,, -0.7407315,44.1473900,,,,,,16,,,,
RESAQU040V50GH6Q,22/01/2020,Restaurant,Restaurant traditionnel,Cuisine européenne,Au petit Saintemarie,,,Avenue de la Petre,17 Place du Lac Marin,40140,SOUSTONS,40310,,+33 6 62 86 79 91,,, -1.3950120,43.7787880,Non,,,,,,01/01/2020|31/12/2020|||||,,,
RESAQU024V504S35,02/01/2018,Restaurant,Restaurant à thème # Restauration rapide,Cuisine diététique # Cuisine européenne # Cuisine traditionnelle # Cuisine végétarienne # Salades,Au phil des saisons,,,3 place de l'ancien hôtel de ville,,24000,PERIGUEUX,24322,+33 5 53 09 53 64,,phils.paul@wanadoo.fr,,0.72065624,45.1840214,Oui,,,,,30,,,Climatisation # Jardin # Terrasse,Wifi
RESAQU033FS0017I,03/01/2020,Restaurant,Restaurant traditionnel,Cuisine traditionnelle # Nouvelle cuisine française # Poisson / fruits de mer # Régionale française # Salades # Viandes,Au pique assiette,,,84 bis boulevard de la Plage ,,33120,ARCACHON,33009,+33 5 56 83 78 33,,info@aupiqueassiette.com,http://www.aupiqueassiette.com, -1.1542583,44.6602138,Oui,,,,,100,01/01/2020|31/12/2020|||||Mercredi,"Menu adulte|16,50|36,00| # Menu enfant|7,50|10,00| # Menu enfant|8,50|24,00|",Cave à vin # Climatisation # Terrasse,
RESAQU024V503YQ1,03/01/2020,Restaurant,Restaurant traditionnel,Cuisine traditionnelle # Régionale française,Au Plaisir de la Table,,,9 Rue Jules Ferry,,24100,BERGERAC,24037,+33 5 24 10 45 04,,,,0.48430469,44.8548380,Oui,,,,,48,,"Menu adulte|||Formules à 10€, 12,80€ et 14,80€ # Menu adulte|||Menus à 12,80€, 15,80€ et 17,80€ # Menu enfant|||plat+dessert",Climatisation # Matériel enfant,
RESAQU033FS0002H,03/01/2020,Restaurant,Restaurant traditionnel # Restauration rapide # Salon de thé,Cuisine traditionnelle # Cuisine végétarienne # Régionale française # Salades # Sandwichs # Tapas # Tartes # Viandes,Au Plaisir Gourmand,,,87 rue Victor Hugo,,33220,SAINTE-FOY-LA-GRANDE,33402,+33 9 87 14 53 59,+33 7 82 47 84 13,auplaisirgourmand33@gmail.com,,0.21755611,44.8396899,Oui,,,,,20,01/01/2020|31/12/2020|||||,"A la carte|9,90|17,00| # Menu adulte|12,00|27,00| # Menu enfant|6,50|7,50|",Terrasse,Plats à emporter # Wifi
RESAQU047V50C95G,30/01/2020,Restaurant,Brasserie # Grill,Régionale française # Salades # Tapas # Viandes,Au Plancher des Vaches,,,Rue de la Prune,,47000,AGEN,47001,+33 5 53 95 90 15,,plancherdesvaches.agen@gmail.com,,0.62724845,44.2059146,Oui,,,,,,01/01/2020|31/12/2020|||||,"A la carte|6,00|52,00|",Bar # Climatisation # Terrasse,
RESAQU047V507OFW,30/01/2020,Restaurant,Bistrot / bar à vin # Brasserie # Restaurant traditionnel,Cuisine bio # Cuisine traditionnelle # Cuisine végétarienne # Glaces # Poisson / fruits de mer # Régionale française # Salades # Tapas # Viandes,Au P'tit Bonheur,,Multiplexe,3 rue de la Prune,Quartier des Cinémas - Place du Pin,47000,AGEN,47001,+33 5 53 96 72 63,,contact@brasserie-populaire.fr,,0.62695314,44.2057834,Oui,,,,,70,01/01/2020|31/12/2020||||| # ||11:45|14:00|18:45|21:30|Dimanche soir,"Menu adulte|14,90|16,90|lundi au samedi # Menu adulte|16,90|19,90|dimanche # Menu enfant|8,00|8,00| # A la carte|6,00|23,00|",Bar # Climatisation # Matériel enfant # Terrasse,Wifi
RESAQU024V50CWHB,03/01/2020,Restaurant,Restaurant traditionnel,Cuisine traditionnelle,Au P'tit Bonheur,Le Bourg,,,,24700,SAINT-GERAUD-DE-CORPS,24415,+33 5 53 82 19 32,,,,0.22645270,44.9518591,Oui,,,,,60,01/01/2020|31/12/2020|||||,"Menu adulte|13,50|25,00| # Menu enfant|8,00||",Bar # Parking privé # Terrasse,Wifi
RESAQU024FS000FJ,03/01/2020,Restaurant,Crêperie,Cuisine végétarienne # Salades,Au P'tit Corentin,,,"31, rue des Fontaines",,24100,BERGERAC,24037,+33 5 53 24 81 27,,,,0.4838739,44.8514461,Oui,,,,,26,,Menu enfant|||jusqu'à 10 ans,Terrasse,
RESAQU024V503G0W,03/01/2020,Restaurant,Brasserie # Restauration rapide,Cuisine traditionnelle,Au P'tit Creux,,,Route de Brive,,24200,SARLAT-LA-CANEDA,24520,+33 5 53 28 53 78,,,,1.21129467,44.9027963,Oui,,,,,40,01/01/2020|31/12/2020|||||,,,Wifi
RESAQU04001AD3S6,27/01/2020,Restaurant,Restaurant traditionnel,Régionale française,Au P'Tit Creux des Landes,,,3 rue Brémontier ,,40160,YCHOUX,40332,+33 5 58 82 38 38,,auptitcreux@orange.fr,http://www.auptitcreuxdeslandes.com/, -0.9417803,44.3272826,,,,,,100,06/01/2020|24/12/2020|||||,"Menu adulte|14,00|30,00|",Bar # Climatisation # Parking privé # Terrasse,Plats à emporter # Wifi
RESAQU033V50CS7G,03/01/2020,Restauration ambulante / Vente à emporter ,Restauration rapide,Sandwichs,Au p'tit Creux du Bassin,,,53 cours de la République,,33470,GUJAN-MESTRAS,33199,+33 5 56 66 18 18,+33 6 68 33 27 07,annick.heyer@yahoo.fr,https://www.facebook.com/Auptitcreuxdubassin/, -1.0636387,44.6387889,,,,,,,01/01/2020|30/12/2020|||||,"A la carte|8,50|8,50|Les salades # A la carte|6,00|10,00|Sandwich kebab frites ou assiette  # A la carte|7,70|8,20|Formule kebab frites  # Menu adulte|8,00|8,50|Formule Hamburger,américain, keftas # A la carte|6,30|6,30|Américain # A la carte|3,70|3,70|wrap  # A la carte|3,00|5,00|panini # A la carte|7,00|7,00|Le Jaco # A la carte|6,50|6,50|burger",,
RESAQU024FS0006D,03/01/2020,Restaurant,Restaurant traditionnel,Cuisine traditionnelle,Au Puits Gourmand,,,,Le Bourg,24200,PROISSANS,24341,+33 5 53 29 52 71,,aupuitsgourmand@orange.fr,,1.2530518,44.9344222,Oui,,,,,40,01/01/2020|31/12/2020|||||,,Bar # Terrasse,Banquet # Plats à emporter # Séminaire
RESAQU064V5058NQ,03/01/2020,Restaurant,Restauration rapide,Cuisine traditionnelle # Salades # Sandwichs,Au quignon,,,3 rue Bernadou,,64100,BAYONNE,64102,+33 5 59 59 07 73,,,, -1.4753077,43.4900226,Oui,,,,,,,,,
RESAQU024FS0002I,03/01/2020,Restaurant,Restaurant traditionnel,Cuisine traditionnelle,Au Relais de Compostelle,,,,,24440,SAINT-AVIT-SENIEUR,24379,+33 5 53 27 24 43,,lerelaisdecompostelle@hotmail.fr ,http://www.pays-des-bastides.com,0.8171150,44.7752570,,,,,,,,,,
RESAQU064V52DGBO,16/01/2020,Restaurant,Brasserie,Cuisine traditionnelle,Au Réveil Matin ,,, 2 Cours Camou,,64000,PAU,64445,+33 5 59 32 47 21,,,, -0.3753841,43.3006092,Oui,,,,,36,02/01/2020|31/12/2020|11:45|14:00|||Dimanche - Samedi,"A la carte|8,50|8,50|Plat # Menu adulte|11,50|13,70|Menu adulte # A la carte|8,50|14,00|",Bar,
RESAQU024FS0005J,03/01/2020,Restaurant,Restaurant traditionnel,Cuisine traditionnelle,AU RIVERSIDE,,,12 quai Salvette,,24100,BERGERAC,24037,+33 5 53 73 86 94,+33 6 69 77 54 49,olsi@live.fr,http://www.riverside-restaurant.fr,0.48194514,44.8504572,Oui,,,,,50,,Menu enfant|||jusqu'à 10 ans,Bar # Matériel enfant # Terrasse,Wifi
RESAQU064V505HIL,03/01/2020,Restaurant,Restaurant traditionnel,Cuisine traditionnelle,Au Roy'home,,,2 allée Antoine de Bourbon,,64320,IDRON,64269,+33 9 50 36 73 43,,lucy2019@gmail.com,, -0.3118950,43.289167,Oui,,,,,45,02/01/2020|31/12/2020|07:00|14:00|||Dimanche,"A la carte|15,00|20,00| # Menu adulte|13,50|13,50|Formule du midi",Bar # Parking privé,Wifi
RESAQU024V50FC2H,31/01/2020,Restaurant,Restaurant traditionnel,Salades # Sandwichs,Au Saint Casse-croûte,,,40 Rue President Wilson,,24000,PERIGUEUX,24322,,+33 6 33 57 73 40,,,0.714039,45.185,Oui,,,,,,,,,
RESAQU064FS00072,03/01/2020,Restaurant,Brasserie # Restaurant traditionnel,Cuisine traditionnelle # Régionale française # Sandwichs,Au Sergent,,,6 route de Bayonne,,64230,DENGUIN,64198,+33 5 59 68 85 17,,c_peret@hotmail.fr,http://www.hotel-peret.fr, -0.5093176,43.3637699,,,,,,150,01/01/2020|31/12/2020|12:00|14:00|19:30|21:00|Dimanche - Samedi soir - Vendredi soir,"Menu adulte|12,00|19,00|",Bar # Climatisation # Garage privé # Jardin # Parking privé # Terrasse,Wifi
RESAQU024V500KRI,03/01/2020,Restaurant,Restauration rapide,Sandwichs,Au switcheur,,,41 rue limogeanne,,24000,PERIGUEUX,24322,+33 5 53 09 02 94,,,,0.7219923,45.1860050,,,,,,,,,,
RESAQU033V5007NB,17/01/2020,Restaurant,Restaurant traditionnel,Cuisine végétarienne # Poisson / fruits de mer # Régionale française # Salades # Viandes,Au Tableau,,,26 avenue de la Libération,,33740,ARES,33011,+33 5 56 60 05 63,,autableauares@gmail.com,http://www.autableau.fr, -1.1363888,44.7650771,Oui,,,,,,02/01/2020|31/12/2020|||||,,,Plats à emporter # Traiteur # Wifi
RESAQU0240002483,03/01/2020,Restaurant,Restaurant traditionnel,Cuisine traditionnelle,Au taravelou,,,Peyrignac,,24210,PEYRIGNAC,24324,+33 5 53 50 80 99,,,,0.4429,45.0615,Oui,,,,,80,,,,
RESAQU064FS0006E,30/01/2020,Restaurant,Pizzeria,Cuisine méditerranéenne,Au Taste Croute,,,16 rue Latapie,,64000,PAU,64445,+33 5 59 27 77 15,,taste-croute@wanadoo.fr # mcsahores@gmail.com,, -0.3672315,43.2955492,Oui,,,,,81,||12:00|14:00|19:30|22:00|Dimanche - Lundi,"Menu adulte|9,00|20,00| # Menu enfant|7,00|7,00|",Climatisation # Jeux pour enfants # Matériel enfant,Plats à emporter # Wifi
RESAQU064FS0000R,03/01/2020,Hôtel restaurant,Restaurant traditionnel,Cuisine traditionnelle,Au Temps de la Reine Jeanne,,,44 rue Bourg Vieux,,64300,ORTHEZ,64430,+33 5 59 67 00 76,,contact@reinejeanne.com,http://www.reinejeanne.com, -0.7747507,43.4883928,Oui,,,,,140,,,Bar,Banquet # Séminaire # Wifi
RESAQU024FS000KJ,31/12/2018,Restaurant,Restaurant traditionnel,Cuisine traditionnelle # Régionale française,Au Temps de Vivre,,,10 rue Saint-Silain,,24000,PERIGUEUX,24322,+33 5 53 09 87 18,,au-temps-de-vivre@orange.fr,,0.7205191,45.1839007,,,,,,25,,,Terrasse,Plats à emporter
RESAQU064V5A0YW3,03/01/2020,Restaurant,Salon de thé,Tartes,Au thé à la menthe,,,15 Place de la Libération,,64000,PAU,64445,,+33 7 81 36 15 81,,, -0.372155,43.297409,Oui,,,,,26,02/01/2020|31/12/2020|||||,"A la carte|2,50|4,00| # A la carte|1,50|1,50|",Terrasse,
RESAQU024V5000FY,03/01/2020,Restaurant,Pizzeria,Cuisine méditerranéenne # Cuisine traditionnelle,Au Triangle Gourmand,,,28 boulevard Coligny,,24310,BRANTOME EN PERIGORD,24064,+33 5 53 09 19 86,,,,0.64868239,45.3656045,Oui,,,,,,,,,
RESAQU040V509BMR,25/01/2018,Restaurant,Bistrot / bar à vin # Restaurant traditionnel,Régionale française # Tapas,Au Vin-3,,,12 Place Robert Lassalle,,40140,SOUSTONS,40310,+33 5 24 26 86 44,,auvin3@gmail.com,, -1.3273156,43.7535441,Oui,,,,,,,,,
RESAQU024V503G9B,03/01/2020,Restaurant,Restaurant à thème,Cuisine asiatique,Au voyage des Saveurs,,,3 Avenue Aristide Briand,,24200,SARLAT-LA-CANEDA,24520,+33 5 47 96 94 34,,,,1.2173331,44.8814729,,,,,,40,01/04/2020|31/10/2020|||||,,Climatisation # Parking privé,Banquet # Plats à emporter # Traiteur
RESAQU064FS0001P,03/01/2020,Hôtel restaurant,Restaurant traditionnel,Régionale française,Auberge  Blondain,,,,Bourg,64390,AUTEVIELLE-SAINT-MARTIN-BIDEREN,64083,+33 5 59 38 54 76,,,http://www.auberge-blondain.fr, -0.970991,43.391057,Oui,,,,,60,13/01/2020|18/12/2020|||||,"Menu adulte|14,00|27,00|menu semaine # Menu enfant|10,00|10,00|Menu semaine",Bar # Parking privé,Banquet
RESAQU024FS0002S,31/12/2018,Restaurant,Restaurant traditionnel,Régionale française,"Auberge ""La Marmite""",,,,Le Bourg,24800,SAINT-PIERRE-DE-COLE,24485,+33 5 53 52 65 40 # +33 9 63 23 59 11,,aubergelamarmite@orange.fr,,0.79237818,45.3708593,Oui,,Flow Vélo,,,65,,,Bar # Terrasse,
RESAQU064FS000RL,06/01/2020,Restaurant,Grill # Restaurant traditionnel,Cuisine traditionnelle # Poisson / fruits de mer # Régionale française # Viandes,Auberge 22,,,22 bis rue Harispe,,64200,BIARRITZ,64122,+33 5 59 41 01 41,+33 6 71 57 92 58,auberge22@orange.fr,https://www.facebook.com/Auberge22btz, -1.5656320,43.4736488,Oui,,,,,100,01/01/2020|31/12/2020|||||Mardi - Mercredi,"A la carte|7,00|38,00| # Menu enfant|12,00|12,00|",Bar # Climatisation # Jardin # Jeux pour enfants # Matériel enfant # Terrasse,Banquet # Séminaire # Traiteur # Wifi
RESAQU064V505CE3,03/01/2020,Restaurant,Restaurant traditionnel,Cuisine traditionnelle,Auberge Achtal,,,Le Bourg,,64200,ARCANGUES,64038,+33 5 59 43 05 56,,achtal@wanadoo.fr,, -1.5227858,43.4367439,Oui,,,,,120,,Menu adulte|||Menu de l'Auberge,Bar # Terrasse,Banquet
RESAQU064V50FM2K,31/01/2020,Restaurant,Restaurant traditionnel,Cuisine diététique # Cuisine traditionnelle # Cuisine végétarienne # Glaces # Poisson / fruits de mer # Régionale française # Salades,Auberge Azkena,,Ferme Algaetcheverry ,,,64130,ARRAST-LARREBIEU,64050,+33 5 59 28 85 34,+33 6 16 99 62 60,cthazkena@orange.fr,http://www.chambresdhote-azkena.fr , -0.841249,43.290388,Oui,,,,,,01/01/2020|31/12/2020|||||,"Menu adulte|27,00|47,00|Boissons non comprises",Jardin # Jeux pour enfants # Parking privé # Piscine # Terrasse,Banquet # Commande en ligne # Panier randonneur # Séminaire # Wifi
RESAQU040FS000LH,29/01/2020,Hôtel restaurant,Restaurant gastronomique # Restaurant traditionnel,Cuisine gastronomique # Régionale française,Auberge Batby,,,63 avenue de Galleben,,40140,SOUSTONS,40310,+33 5 58 41 18 80 # +33 5 58 41 18 80,,contact@aubergebatby.fr,http://www.aubergebatby.fr, -1.3374137,43.7582317,Oui,,,,,70,01/01/2020|31/12/2020|||||,"A la carte|18,00||",,
RESAQU064FS000LW,06/01/2020,Restaurant,Restaurant traditionnel,Cuisine traditionnelle,Auberge Bellevue,,,55 Rue du Bourguet,,64440,LARUNS,64320,+33 5 59 05 17 03,,auberge-bellevue@orange.fr,, -0.4248239,42.9909265,Oui,,,,,50,01/01/2020|31/12/2020|||||,A la carte|||Plats # A la carte|||Entrées # A la carte|||Desserts,Terrasse,
RESAQU064FS000NC,30/01/2020,Restaurant,Restaurant traditionnel,Cuisine traditionnelle,Auberge Berriex,,,Route de la Pierre St Martin,,64560,SAINTE-ENGRACE,64475,+33 5 59 28 60 54,,desperbenmireille@yahoo.fr,, -0.8039438,42.9964082,Oui,,,,,70,01/01/2020|31/12/2020|||||,"Menu adulte|13,50||Le midi # A la carte|9,80|14,00|",Bar # Jardin # Parking privé # Terrasse,Traiteur
RESAQU064FS000NJ,03/01/2020,Restaurant,Restaurant traditionnel,Cuisine traditionnelle,Auberge Bordaberria,,,,,64130,IDAUX-MENDY,64268,+33 5 59 28 23 22,,,, -0.9169024,43.1598793,Oui,,,,,60,,,Parking privé # Terrasse,
RESAQU024FS000CL,28/04/2016,Restaurant,Restaurant traditionnel,Cuisine traditionnelle # Régionale française,Auberge Chez Renée,,,,Le Lyonnet,24460,AGONAC,24002,+33 5 53 08 84 79,,,,0.7456310,45.2524670,,,,,,,,,,
RESAQU024V50AHWC,02/01/2018,Restaurant,Restaurant traditionnel,Régionale française,Auberge Chez Renée,,,Lyonnet,,24460,AGONAC,24002,+33 5 53 08 84 79,,,,0.74547010,45.2521461,Oui,,,,,,,,,
RESAQU040V50MNGM,03/01/2020,Restaurant,Restaurant traditionnel,Cuisine traditionnelle,Auberge Chez Suzon,,,,,40420,GAREIN,40105,,,,, -0.654756,44.041027,Oui,,,,,,,,,
RESAQU064FS0019F,03/01/2020,Hôtel restaurant,Restaurant traditionnel,Cuisine traditionnelle # Régionale française,Auberge Chez Tante Ursule,,,Bas Cambo,,64250,CAMBO-LES-BAINS,64160,+33 5 59 29 78 23,,contact@auberge-tante-ursule.com,http://www.auberge-tante-ursule.com, -1.39957,43.370311,Oui,,,Logis,2 cheminées # 2 cocottes,75,10/01/2020|20/12/2020|||||,"Menu adulte|28,00|33,00|Menu adulte # A la carte|18,00|30,00|A la carte # Menu enfant|10,00|10,00|Menu enfant",,Banquet # Plats à emporter # Wifi
RESAQU064FS0000M,03/01/2020,Restaurant,Restaurant traditionnel,Cuisine traditionnelle,Auberge Claverie,,,2 place de l'Estanquet,,64190,AUDAUX,64075,+33 5 59 66 03 80,,aubergeclaverie@yahoo.fr,, -0.7910552,43.3576746,Oui,,Assiette de Pays # Maître Restaurateur,,,120,01/01/2020|31/12/2020|||||,"Menu adulte|14,00|43,00| # Menu enfant|9,50||",Bar # Parking privé # Terrasse,Banquet # Séminaire
RESAQU064FS000MP,30/01/2020,Restaurant,Restaurant traditionnel,Cuisine traditionnelle,Auberge d'Ahuski,,,,Ahuski,64130,AUSSURUCQ,64081,+33 5 59 28 57 27,,ahusky@orange.fr,, -1.0172975,43.0949663,Oui,,,,,100,12/04/2020|30/11/2020|||||,"Menu adulte|23,00|27,00|",Bar # Jardin # Jeux pour enfants # Parking privé # Salle(s) de réunion # Terrasse,Banquet
RESAQU024V500KRM,01/01/2017,Restaurant,Restaurant à thème,Cuisine asiatique,Auberge de Chine,,,21 rue Clermont de piles,,24000,PERIGUEUX,24322,+33 5 53 53 49 94,,,,0.7059507,45.1847290,,,,,,,,,,
RESAQU024FS0006T,28/04/2016,Hôtel restaurant,Restaurant traditionnel,Régionale française,Auberge de combiers,Combiers,,,,24800,SAINT-PAUL-LA-ROCHE,24481,+33 5 53 52 57 95,,aubergedecombier@aol.com,,1.0085697,45.4599908,,,,,,,,,,
RESAQU024FS000DG,01/01/2017,Restaurant,Restaurant traditionnel,Régionale française,Auberge de Fontagre,,,,Le Jamouty,24150,BAYAC,24027,+33 5 53 61 11 07,+33 6 76 45 09 43,fontagre@wanadoo.fr ,http://www.leclosdefontagre.com ,0.7148934,44.7972385,Oui,,,,,60,,,,
RESAQU024FS000L7,28/04/2016,Restaurant,Restaurant traditionnel,Cuisine traditionnelle,Auberge de La Bouquerie,,,,La Bouquerie,24590,SAINT-GENIES,24412,+33 5 53 28 98 22,,contact@labouquerie.com,,1.2505720,44.9943870,,,,,,120,,,Bar # Jardin # Jeux pour enfants # Parking privé # Piscine # Terrasse,Wifi
RESAQU024FS0008W,03/01/2020,Restaurant,Restaurant traditionnel,Cuisine traditionnelle # Cuisine végétarienne,Auberge de la ferme de Panivol,,,,Panivol,24360,BUSSIERE-BADIL,24071,+33 5 53 56 40 66,,panivol-perigord@wanadoo.fr,,0.60708550,45.6251827,Oui,,,,,19,,,Jardin # Parking privé # Terrasse,Banquet # Traiteur # Wifi
RESAQU0240007501,27/04/2016,Traiteur (sans restaurant),,Cuisine traditionnelle,Auberge de la Feuillade,,,7 Route de la Seille,,24600,LA FEUILLADE,24179,+33 5 55 22 91 88,,,,1.4092461,45.1232927,,,,,,,,,,
RESAQU064FS000MM,03/01/2020,Hôtel restaurant,Restaurant traditionnel,Cuisine traditionnelle,Auberge de la Fontaine,,,Place de l'église,,64390,LAAS,64287,+33 5 59 38 20 20,,aubergedelafontaine.laas@orange.fr,http://www.aubergedelafontaine.net, -0.8505821,43.3814094,Oui,,,,,100,01/01/2020|16/02/2020|12:00|13:30|19:30|21:30|Dimanche soir - Mercredi # 16/03/2020|31/12/2020|12:00|13:30|19:30|21:30|Dimanche soir - Mercredi,"Menu adulte|14,00|30,00| # Menu enfant|7,00|7,00|",Bar # Parking privé # Terrasse,Banquet # Séminaire # Wifi
RESAQU0240002545,28/04/2016,Restaurant,Restaurant traditionnel,Régionale française,Auberge de la Force,,Archignac,La Force,,24590,ARCHIGNAC,24012,+33 5 53 28 85 14,,,,1.3104639,45.0079205,,,,,,,,,,
RESAQU033FS00031,03/01/2020,Restaurant,Restaurant traditionnel,Régionale française,Auberge de la Haute-Lande,,,5 le Bourg Nord,,33113,BOURIDEYS,33068,+33 5 56 25 74 84,,aubergedelahautelande@orange.fr,http://www.auberge-de-la-haute-lande.fr, -0.45382,44.368007,Oui,,,,,50,01/01/2020|31/12/2020|||||,"Menu adulte|12,50|14,60|formule du midi # Menu adulte|22,50|36,50| # Menu enfant|8,50||",Bar # Jardin # Parc # Parking privé # Terrasse,Wifi
RESAQU0240002700,31/01/2020,Restaurant,Restaurant traditionnel,Cuisine traditionnelle,Auberge de la Nauze ,,,Fongauffier,,24170,SAGELAT,24360,+33 5 53 28 44 81,,aubergedelanauze@wanadoo.fr,http://www.aubergedelanauze.com,1.0114711,44.7880785,Oui,,,,,80,,,Parking privé # Terrasse,Traiteur
RESAQU04001NQNLB,03/01/2020,Restaurant,Restaurant traditionnel,Cuisine traditionnelle,Auberge de la Pouillique,,,"656, chemin de la Pouillique",,40090,MAZEROLLES,40178,+33 5 58 75 22 97,,aubergepouillique@orange.fr,http://www.auberge-lapouillique.com, -0.4358287,43.8915888,Oui,,Tables & Auberges de France,Association des Cuisiniers Landais # Tables et Auberges de France,,100,,"Autre tarif|17,50|17,50|Menu du jour # A la carte|47,00|47,00|Ticket moyen à la carte",Jardin # Parc # Parking privé # Terrasse,Banquet
RESAQU047FS000HR,03/01/2020,Restaurant,Guinguette # Restaurant traditionnel,Cuisine bio # Cuisine traditionnelle # Cuisine végétarienne # Régionale française # Salades,Auberge De La Poule à Vélo,,,645 route du canal,Mouynes,47270,SAINT-JEAN-DE-THURAC,47248,+33 5 53 68 41 17,+33 6 27 50 01 30,lapouleavelo@live.fr,http://www.lapouleavelo.fr,0.7434086,44.1526775,Oui,,,,,22,,"Menu adulte|22,00|32,00|Midi en semaine : 22€ - Menu soir et WE : 27€ - Menu du coin : 32€",Climatisation # Garage privé # Jardin # Jeux pour enfants # Terrasse,Banquet # Panier randonneur # Wifi
RESAQU0240004633,03/01/2020,Restaurant,Brasserie # Restaurant traditionnel,Cuisine traditionnelle,AUBERGE DE LA RODE - RESTAURANT,,,Place de la Rode,,24250,DOMME,24152,+33 5 53 28 36 97,,contact@auberge-delarode.com,http://www.auberge-delarode.com,1.2146220,44.8011610,,,,,,100,,,,
RESAQU0240004364,03/01/2020,Restaurant,Restaurant traditionnel,Cuisine traditionnelle,Auberge de la Salamandre,,,6 rue des Consuls,,24200,SARLAT-LA-CANEDA,24520,+33 5 53 31 04 41,,,,1.2157962,44.8906344,,,,,,,,,,Wifi
RESAQU024FS000IR,03/01/2020,Hôtel restaurant,Restaurant traditionnel,Cuisine traditionnelle,Auberge de la Truffe,,,14 avenue Jean-Chateaureynaud,RN 21 -Sorges,24420,SORGES ET LIGUEUX EN PERIGORD,24540,+33 5 53 05 02 05,,contact@auberge-de-la-truffe.com,http://www.auberge-de-la-truffe.com,0.87297786,45.3073437,Oui,,,Logis,3 cocottes,120,,,Bar # Climatisation # Jeux pour enfants # Parking privé # Piscine # Terrasse,Banquet # Plats à emporter # Séminaire # Traiteur # Wifi
RESAQU040FS0006F,03/01/2020,Hôtel restaurant,Bistrot / bar à vin # Restaurant à thème # Restaurant gastronomique # Restaurant traditionnel # Salon de thé,Cuisine diététique # Cuisine gastronomique # Nouvelle cuisine française # Poisson / fruits de mer # Régionale française # Tapas # Tartes # Viandes,Auberge de l'Abbaye,,,86 Place de l'église ,,40300,SORDE-L'ABBAYE,40306,+33 5 58 73 08 90,+33 6 82 35 49 79,cazaux6@gmail.com,http://www.auberge-de-labbaye40.fr/, -1.0547729,43.5293520,Oui,,,,,60,,"Menu adulte|12,00|12,00| # Menu enfant|10,00|10,00| # A la carte|||Ticket moyen 35,00€",Bar # Climatisation # Terrasse,Banquet # Séminaire # Traiteur # Wifi
RESAQU024V500GBS,03/01/2020,Restaurant,Restaurant traditionnel,Cuisine traditionnelle,Auberge de Lapeyre,Lapeyre,,,,24300,AUGIGNAC,24016,+33 5 53 56 72 85,+33 6 86 00 96 95,aubergedede@gmail.com,,0.68178857,45.574263,Oui,,,,,30,,,,
RESAQU0240008332,03/01/2020,Restaurant,Restaurant traditionnel,Régionale française,Auberge de Layotte,,,,Layotte,24620,TURSAC,24559,+33 5 53 06 95 91,,aubergedelayotte@orange.fr,http://www.aubergedelayotte.com,1.0449080,44.9691479,,,,,,50,,"Menu adulte|36,00|| # Menu enfant|12,00||",Jardin # Parc # Parking privé # Terrasse,
RESAQU024FS00033,03/01/2020,Restaurant,Restaurant gastronomique,Cuisine gastronomique,Auberge de l'Eclade,17 bourg de Ménestérol,,,,24700,MONTPON-MENESTEROL,24294,+33 5 53 80 28 64,,,,0.15698432,45.0171980,Oui,,,Les Toques du Périgord,,85,01/01/2020|31/12/2020|||||,"Menu adulte|25,00|38,00| # Menu enfant||10,00|",,Banquet # Séminaire # Traiteur # Wifi
RESAQU064FS000M0,09/01/2020,Restaurant,Restaurant traditionnel,Cuisine traditionnelle # Régionale française,Auberge de l'Embaradère,,,13 Avenue de la Gare,,64440,LARUNS,64320,+33 5 59 05 41 88,+33 6 85 44 50 31,contact@gite-embaradere.com,http://www.gite-embaradere.com, -0.4238331,42.9882290,Oui,,,,,60,01/01/2020|31/12/2020|||||,"Menu adulte|13,00|13,00|Formule midi # Menu adulte|21,00|21,00|Menu soir et week-end # Menu enfant|8,00|8,00| # A la carte|6,00|20,00|Assiettes combinées ou plats",Bar,
RESAQU047FS00024,03/01/2020,Restaurant,Restaurant traditionnel,Cuisine gastronomique,Auberge de l'Escale,,,Pont des Sables,,47200,FOURQUES-SUR-GARONNE,47101,+33 5 53 93 60 11,,restaurant@aubergedelescale.fr,,0.13991880,44.4608682,Oui,,,,,60,01/01/2020|31/12/2020|||||Dimanche soir - Mardi soir - Mercredi,"Menu adulte|15,00|35,00|",Bar # Jardin # Parc # Parking privé # Terrasse,Banquet # Séminaire # Traiteur
RESAQU064FS000CD,30/01/2020,Hôtel restaurant,Brasserie # Restaurant traditionnel,Cuisine traditionnelle,Auberge de l'Estanquet,12 rue du Marché,,,,64240,URT,64546,+33 5 59 56 94 90,,aubergedelestanquet@orange.fr,, -1.2907964,43.4940362,Non,,,Logis,2 cheminées # 2 cocottes,40,06/01/2020|13/12/2020|||||,"Menu adulte|14,00|14,00|Formule du midi # Menu adulte|24,50|24,50|Menu Découverte # Menu adulte|30,00|30,00|Menu des Producteurs # A la carte|9,50|13,50|Entrées # A la carte|17,00|19,50|Plats # A la carte|7,00|7,00|Desserts",Bar # Terrasse,Wifi
RESAQU064FS000N8,03/01/2020,Hôtel restaurant,Restaurant traditionnel,Cuisine traditionnelle,Auberge de l'Etable,,,,,64470,MONTORY,64404,+33 5 59 28 69 69,,auberge-etable@wanadoo.fr,http://www.auberge-etable.com, -0.8177411,43.0981705,Oui,,,,,120,,,,
RESAQU024FS000MV,13/01/2020,Hôtel restaurant,Restaurant traditionnel,Cuisine gastronomique # Cuisine traditionnelle # Régionale française,Auberge de l'Etang Bleu ,,,Sur D93,,24340,MAREUIL EN PÉRIGORD,24253,+33 5 53 60 92 63,,phc250348@gmail.com,http://www.auberge-de-letang-bleu.com,0.50410247,45.4274950,Oui,,,Logis,2 cheminées # 3 cocottes,30,,,Parc # Parking privé # Terrasse,
RESAQU0240002567,03/01/2020,Ferme auberge,Restaurant traditionnel,Cuisine traditionnelle,Auberge de l'Etang Joli,,,,La Combe ,24620,LES EYZIES,24172,+33 5 53 35 29 87,,,http://www.aubergeetangjoli.com,0.99941253,44.9161943,Oui,,,,,,,,Parking privé # Terrasse,
RESAQU064FS000NK,03/01/2020,Restaurant,Brasserie # Restaurant traditionnel,Cuisine traditionnelle,Auberge de Logibar,,,,,64560,LARRAU,64316,+33 5 59 28 61 14,,christine.quihilliry@laposte.net,http://www.auberge-logibar.com, -0.9275293,43.0181721,Oui,,,,,,,,Bar # Garage privé # Parking privé # Terrasse,Wifi
RESAQU040V509MVI,03/01/2020,Restaurant,Restaurant traditionnel,Cuisine traditionnelle,Auberge de Maillères,,,115 route de Roquefort,,40120,MAILLERES,40170,+33 5 47 31 04 34,,,, -0.4434520,44.0292784,Oui,,,,,,,,,
RESAQU024FS000CN,31/01/2020,Restaurant,Restaurant traditionnel,Cuisine bio # Cuisine bistronomique # Cuisine traditionnelle # Cuisine végétarienne,Auberge de Meyrals,Le Bourg,,,,24220,MEYRALS,24268,+33 5 53 30 12 06,,contact@auberge-meyrals.com,https://www.auberge-meyrals.com,1.06356688,44.8979568,Oui,,Maître Restaurateur # Tables & Auberges de France,,,80,25/03/2020|27/09/2020|||||,"A la carte|12,00|38,00| # Menu adulte|26,00|40,00| # Menu enfant|12,00|12,00|",Bar # Matériel enfant # Parking privé # Terrasse,Plats à emporter # Traiteur # Wifi
RESAQU0240004547,03/01/2020,Restaurant,Restaurant traditionnel,Cuisine gastronomique # Cuisine traditionnelle,Auberge de Mirandol,,,7 rue des Consuls,,24200,SARLAT-LA-CANEDA,24520,+33 5 53 29 53 89,,contact@lemirandol.fr ,http://www.lemirandol.fr,1.21612666,44.8906352,Oui,,,,,170,13/02/2020|31/12/2020|||||,,Climatisation # Terrasse,Wifi
RESAQU0240006879,03/01/2020,Ferme auberge,Restaurant traditionnel,Cuisine traditionnelle,Auberge de Nailhac,,,Le Bourg,,24390,NAILHAC,24302,+33 5 53 51 59 01,,,,1.1766349,45.2883240,,,,,,,,,,
RESAQU0240004302,03/01/2020,Ferme auberge,Restaurant traditionnel,Cuisine traditionnelle,Auberge de Pech Mortier,,,Pech Mortier,,24620,MARCILLAC-SAINT-QUENTIN,24252,+33 5 53 28 35 88,,domaine.pechmortier@gmail.com,,1.16841196,44.9462184,Oui,,,,,,01/04/2020|31/10/2020|||||,,Parking privé # Terrasse,
RESAQU024V503H0K,03/01/2020,Restaurant,Restaurant traditionnel,Cuisine traditionnelle,Auberge de Ravilhon,,,2 rue des armes,,24200,SARLAT-LA-CANEDA,24520,+33 5 53 31 03 14,,,,1.21523494,44.8907669,Oui,,,,,,01/04/2020|01/11/2020|||||,,,Wifi
RESAQU024FS0006E,31/12/2018,Ferme auberge,Restaurant traditionnel,Cuisine traditionnelle,Auberge de Roustigou,,,,La Force,24590,ARCHIGNAC,24012,+33 5 53 28 85 14 # +33 5 53 29 17 52,+33 6 70 75 15 89,,,1.3123850,45.0113970,,,,,,55,,,Jardin,
RESAQU047FS000KE,03/01/2020,Restaurant,Restaurant à thème # Restaurant traditionnel,Cuisine traditionnelle # Régionale française,Auberge de Vezou,Domaine de Gavaudun,,,Vezou,47150,GAVAUDUN,47109,+33 5 53 36 21 90,,info@domaine-de-gavaudun.com,https://www.domaine-de-gavaudun.com/fr/village-vacances/restaurant,0.902812,44.567584,Oui,,,,,220,01/07/2020|31/08/2020|||||Dimanche midi - Jeudi midi - Lundi midi - Mardi - Mercredi - Samedi midi - Vendredi midi,"Menu adulte|15,00|28,00|",Bar # Climatisation # Jardin # Jeux pour enfants # Matériel enfant # Parc # Parking privé # Piscine # Salle(s) de réunion # Terrasse,Banquet # Panier randonneur # Séminaire # Traiteur # Wifi
RESAQU0240002484,28/04/2016,Restaurant,,Cuisine traditionnelle,Auberge de Villac,,,Villac,,24120,VILLAC,24580,+33 5 53 51 09 77,,,,0.9317636,45.2088031,,,,,,,,,,
RESAQU064FS001RB,03/01/2020,Hôtel restaurant,Restaurant traditionnel,Burger # Cuisine traditionnelle # Sandwichs,Auberge Denena,,,29 rue Etxe Goxoak,,64120,AICIRITS-CAMOU-SUHAST,64010,+33 5 59 38 34 80,,aubergedenena@sfr.fr,, -1.0228496,43.3373911,Oui,,,Logis,2 cheminées # 2 cocottes,80,,,Bar # Climatisation # Parc # Terrasse,Banquet # Panier randonneur # Plats à emporter # Wifi
RESAQU047FS00037,03/01/2020,Restaurant,Pizzeria # Restaurant traditionnel,Cuisine traditionnelle # Régionale française,Auberge des 7 Princes,,,Avenue Jacques Bertrand,,47170,MEZIN,47167,+33 5 53 65 83 04,,septprinces@free.fr,http://www.septprinces.fr,0.25362968,44.0574303,Oui,,,,,120,01/01/2020|30/06/2020|||||Dimanche soir - Lundi soir # 01/07/2020|31/08/2020||||| # 01/09/2020|31/12/2020|||||Dimanche soir - Lundi soir,"Menu adulte|24,00|24,00|Menu gastronomique # A la carte|8,50|19,00| # Menu adulte|16,00|27,00|Menus groupes # Menu adulte|10,50|13,00|Menus du jour le midi du Lundi au Vendredi hors et jour feries",Bar # Parking privé # Terrasse,Banquet # Plats à emporter
RESAQU024V50DHAP,03/01/2020,Restaurant,Restaurant traditionnel,Cuisine traditionnelle,Auberge des Arts,Le Bourg,,,,24360,BUSSIERE-BADIL,24071,+33 5 53 60 98 13,,sas.aubergedesarts@gmail.com,,0.605018,45.651489,Oui,,,,,46,,,Bar # Terrasse,Banquet # Panier randonneur # Plats à emporter # Séminaire # Traiteur
RESAQU047FS000H4,03/01/2020,Hôtel restaurant,Restaurant traditionnel,Cuisine traditionnelle,Auberge des Bastides,,,30 avenue de Paris,,47800,SAINT-PARDOUX-ISAAC,47264,+33 5 53 79 76 04,+33 6 12 71 12 80,aubergedesbastides@hotmail.fr,http://www.auberge-des-bastides.fr,0.3570869,44.6097395,Oui,,,,,130,21/01/2020|31/12/2020|||||Dimanche soir,"Menu adulte|13,00|25,00|Menus en semaine # Menu adulte|17,00|25,00|Menus soir et week-end",Bar # Climatisation # Parking privé # Terrasse,Banquet # Plats à emporter # Traiteur # Wifi
RESAQU024V50033L,28/04/2016,Restaurant,Restaurant traditionnel,Cuisine traditionnelle,Auberge des Brasdoux ,,,Gatinelie ,,24450,MIALET,24269,,,,,0.8777800,45.5798590,,,,,,,,,,
RESAQU04001UVSSW,09/01/2020,Restaurant,Restaurant traditionnel,Cuisine gastronomique # Cuisine traditionnelle # Régionale française,Auberge des Chasseurs,Route d'Estigarde,,,,40240,CREON-D'ARMAGNAC,40087,+33 5 58 44 34 66,,brunogenebes@gmail.com,, -0.1066446,43.9970132,Oui,,,,,70,01/01/2020|31/12/2020|09:00|15:30|18:30|21:30|,"Menu adulte|19,00|33,00| # Autre tarif|9,00|13,00|Menu du jour  # Menu enfant|6,50|| # A la carte|6,50|18,00|",Bar # Parking privé # Terrasse,Banquet # Traiteur # Wifi
RESAQU064FS000MS,03/01/2020,Restaurant,Restaurant traditionnel,Cuisine traditionnelle,Auberge des chênes,,Maighia,,,64130,CHARRITTE-DE-BAS,64187,+33 5 59 28 81 40,,aubergedeschenes@orange.fr,, -0.8865344,43.2972608,Oui,,,,,30,,,,
RESAQU047FS00077,03/01/2020,Restaurant,Restaurant à thème # Restaurant traditionnel # Traiteur,Cuisine traditionnelle # Régionale française # Viandes,Auberge des Deux Berets,,,,Le Tuc Blanc,47500,CUZORN,47077,+33 5 53 40 91 85,,auberge2berets@orange.fr,,0.94879388,44.5308104,Oui,,,,,80,01/01/2020|31/12/2020|11:45|13:30|||Dimanche - Lundi,"Menu adulte|14,80|14,80|Menu du jour à partir de # Menu adulte|12,00|19,00| # Menu enfant|8,50|8,50|",Jardin # Parking privé # Salle(s) de réunion # Terrasse,Banquet # Séminaire # Traiteur # Wifi
RESAQU024V502DMT,01/03/2018,Restaurant,Restaurant traditionnel,Cuisine gastronomique # Cuisine traditionnelle,Auberge des Fontilles ,,,,Les Fontilles ,24330,LA DOUZE,24156,+33 5 53 06 71 43,,aubergefontilles@wanadoo.fr,http://auberge-des-fontilles.fr,0.86328200,45.061515,Oui,,,,,20,,,Climatisation # Jardin # Parking privé,
RESAQU047FS00047,03/01/2020,Restaurant,Restaurant traditionnel,Cuisine traditionnelle # Régionale française,Auberge des Glycines,,,Avenue des Pyrénées - N21,,47290,CANCON,47048,+33 5 53 01 75 76,,alg47@orange.fr,http://www.aubergelesglycines.com,0.625382,44.531652,Oui,,,,,60,,Menu adulte|||Le midi en semaine,Bar # Jardin # Parking privé # Terrasse,Banquet # Séminaire # Wifi
RESAQU033V50ES5Z,03/01/2020,Restaurant,Restaurant traditionnel,Cuisine traditionnelle # Fromagerie # Glaces # Poisson / fruits de mer # Salades # Viandes,Auberge des Grands Vins,,,1 place du Commandant Pierre Arnould,,33460,LABARDE,33211,+33 5 57 88 92 70,,contact@adgv.fr,https://www.auberge-des-grands-vins.com, -0.6380040,45.0226808,Oui,,,,,,01/01/2020|31/12/2020|||||,"A la carte|26,00|55,00| # Menu adulte|10,00|38,00|",Terrasse,
RESAQU024FS000DO,17/01/2020,Restaurant,Restaurant traditionnel,Cuisine traditionnelle,Auberge des Marronniers,,,,Le bourg,24150,LANQUAIS,24228,+33 5 53 24 93 78,+33 6 08 93 88 39,lesmarronniers24@gmail.com,,0.6704986,44.8246017,Oui,,,,,64,01/01/2020|20/03/2020|||||Dimanche soir - Jeudi soir - Lundi soir - Mardi soir - Mercredi # 20/03/2020|08/11/2020|12:00|14:00|19:00|21:00|Mercredi # 01/12/2020|31/12/2020|||||Dimanche soir - Jeudi soir - Lundi soir - Mardi soir - Mercredi,"Menu enfant|10,00||Jusqu'à 10 ans # Menu adulte|14,00||hors week-end et jours fériés # Menu adulte|24,00|31,00|28",Parking privé # Terrasse,Wifi
RESAQU047FS000D1,03/01/2020,Restaurant,Restaurant à thème # Restaurant traditionnel,Cuisine traditionnelle # Régionale française,Auberge des Moulins,,,Le bourg,,47500,BLANQUEFORT-SUR-BRIOLANCE,47029,+33 5 53 49 28 80,,,,0.97013354,44.6000322,Oui,,,,,40,01/01/2020|31/12/2020|||||Dimanche - Lundi soir,"Menu adulte|15,00|15,00|Menu le midi",Bar # Terrasse,Banquet # Traiteur # Wifi
RESAQU040FS000LI,03/01/2020,Hôtel restaurant,Restaurant traditionnel,Régionale française,Auberge des Pins,,,Route de Soustons,,40140,AZUR,40021,+33 5 58 48 01 31,,hotel.despins@wanadoo.fr,, -1.2988758,43.7855951,Oui,,,,,,,,,
RESAQU0240002612,03/01/2020,Hôtel restaurant,Brasserie # Restaurant traditionnel,Cuisine traditionnelle,Auberge des Platanes,,,,Le bourg,24250,LA ROQUE-GAGEAC,24355,+33 5 53 29 51 58,,contact@aubergedesplatanes.com,http://www.aubergedesplatanes.com,1.1830406,44.8258730,,,,,,100,03/04/2020|10/11/2020|||||,,Terrasse,Wifi
RESAQU047FS000JV,03/01/2020,Restaurant,Restaurant traditionnel,Cuisine traditionnelle,Auberge des Sables,,,,Pont des Sables,47200,FOURQUES-SUR-GARONNE,47101,+33 5 24 30 42 42,,,,0.159563,44.448308,Oui,,,,,,01/01/2020|31/12/2020|||||Dimanche - Jeudi soir - Lundi soir - Mardi soir - Mercredi soir - Samedi - Vendredi soir,,Terrasse,
RESAQU0240002668,03/01/2020,Restaurant,Restaurant traditionnel,Cuisine traditionnelle,Auberge des Tilleuls,,,Le bourg,,24390,BADEFOLS-D'ANS,24021,+33 5 53 51 35 69,,,,1.2234725,45.2556202,,,,,,,,Autre tarif|||Menu du jour en semaine,,
RESAQU024FS0001N,03/01/2020,Hôtel restaurant,Restaurant traditionnel,Cuisine traditionnelle # Régionale française,Auberge des Tilleuls,,,le bourg,,24300,JAVERLHAC-ET-LA-CHAPELLE-SAINT-ROBERT,24214,+33 5 53 56 30 12,,aubergedestilleuls@hotmail.com,,0.5569871,45.5700021,,,Flow Vélo,,,50,,,Bar,Banquet # Plats à emporter # Traiteur
RESAQU0240003785,31/01/2020,Restaurant,Restaurant traditionnel,Cuisine traditionnelle # Régionale française,Auberge des Tilleuls,Langlade,,,,24220,MARNAC,24254,+33 5 53 31 68 15,,aubergelestilleuls24@gmail.com,http://www.fermelestilleuls.com,1.03052391,44.8311228,Oui,,,,,60,01/01/2020|31/12/2020|||||,"Menu adulte|15,00|33,00|",Parc # Parking privé # Terrasse,Banquet # Wifi
RESAQU024FS0004R,03/01/2020,Restaurant,Restaurant traditionnel,Cuisine traditionnelle,Auberge d'Imbès,,,,La Gratadie,24590,ARCHIGNAC,24012,+33 5 53 31 68 44,,aubergedimbes@gmail.com,http://www.aubergedimbes.com,1.26969337,45.0100836,Oui,,,,,50,01/03/2020|30/11/2020|||||,"Menu adulte|22,00|26,50| # A la carte|10,00|20,00| # Menu enfant|9,00||",Jardin # Parc # Parking privé # Terrasse,Banquet # Séminaire # Wifi
RESAQU064FS0000H,03/01/2020,Restaurant,Restaurant traditionnel,Cuisine traditionnelle,Auberge du Bois,35 avenue de Mourenx,,,,64190,NAVARRENX,64416,+33 5 59 66 10 40,,aubergedubois64@gmail.com,, -0.7501923,43.3244283,Oui,,,,,42,01/01/2020|31/12/2020|||||,"Menu adulte|13,50|17,00| # Menu enfant|9,00||",Bar # Climatisation # Parking privé # Terrasse,Plats à emporter
RESAQU040FS0006Q,03/01/2020,Restaurant,Restaurant traditionnel,Cuisine traditionnelle,Auberge du Born,,,32 route du Nel,,40170,SAINT-JULIEN-EN-BORN,40266,+33 5 58 42 52 03,,aubergeduborn@orange.fr,, -1.2262737,44.0615012,Oui,,Maître Restaurateur,,,,01/01/2020|31/12/2020|||||,,Jeux pour enfants,
RESAQU04001MTQ7X,03/01/2020,Restaurant,Restaurant traditionnel,Régionale française,Auberge du bosquet,,,158 rue de Fourchette,,40370,RION-DES-LANDES,40243,+33 5 58 57 12 50,,restolebosquet@orange.fr,, -0.9259245,43.9354422,Oui,,,,,,,,Parking privé # Terrasse,Wifi
RESAQU04001QBJJ5,08/01/2020,Restaurant,Bistrot / bar à vin # Restaurant traditionnel,Cuisine traditionnelle,Auberge du Bousquet,,,37 boulevard de l'Océan ,,40300,LABATUT,40132,+33 5 58 56 17 68,+33 6 82 20 20 09,aubergedubousquet@orange.fr,, -0.9849426,43.5506713,Oui,,,,,70,,,Bar # Jardin # Parking privé # Terrasse,Banquet # Séminaire
RESAQU047FS0005I,03/01/2020,Restaurant,Grill # Restaurant traditionnel # Traiteur,Cuisine gastronomique # Cuisine traditionnelle # Régionale française,Auberge du Brelan,,,,Laboissière,47370,ANTHE,47011,+33 5 53 40 78 08,+33 6 28 94 52 18,auberge.brelan@gmail.com,http://www.aubergedubrelan.com,0.98073363,44.3693303,Oui,,,,,140,01/03/2019|10/05/2019|||||Jeudi - Lundi - Mardi - Mercredi - Vendredi # 15/05/2020|19/09/2020|||||Dimanche soir - Lundi # 21/09/2020|01/11/2020|||||Jeudi - Lundi - Mardi - Mercredi - Vendredi,"Menu adulte|15,00|34,00| # Menu enfant|11,00|11,00|",Bar # Jeux pour enfants # Parking privé # Terrasse,Banquet # Plats à emporter # Séminaire # Traiteur # Wifi
RESAQU047FS000GP,16/01/2020,Restaurant,Restaurant traditionnel,Cuisine asiatique # Cuisine traditionnelle # Régionale française,Auberge du Camping de la Vallée de Gardeleau,,,,Gardeleau,47410,SERIGNAC-PEBOUDOU,47299,+33 5 53 36 96 96,+33 6 14 90 10 03,vplf@orange.fr,http://camping-valleegardeleau.com,0.54141998,44.6144074,Oui,,Sourire du Lot-et-Garonne,,,26,01/01/2020|31/12/2020|||||,"Menu adulte|12,00|26,00| # A la carte|3,50|30,00| # A la carte|20,00||Repas traditionnel chinois",Bar # Jardin # Jeux pour enfants # Matériel enfant # Parc # Parking privé # Piscine # Terrasse,Banquet # Panier randonneur # Plats à emporter # Séminaire # Traiteur # Wifi
RESAQU064V509K0Y,03/01/2020,Restaurant,Bistrot / bar à vin # Restaurant traditionnel,Régionale française,Auberge du caviste,,,9 avenue Aristide Briand,,64260,LOUVIE-JUZON,64353,+33 5 33 11 15 74,,laubergeducaviste@hotmail.fr,http://laubergeducaviste.e-monsite.com, -0.4200452,43.0887079,Oui,,,,,30,02/01/2020|31/12/2020|||||,"Menu adulte|13,00||entré+plat+fromage+dessert+café",Bar # Terrasse,
RESAQU024FS0003V,03/01/2020,Restaurant,Restaurant traditionnel,Cuisine traditionnelle # Salades,Auberge du Château de Biron,,,Le Bourg,,24540,BIRON,24043,+33 5 53 63 13 33,+33 6 58 07 82 69,aubergedebiron@gmail.com,,0.87234000,44.632138,Oui,,,,,70,,Menu enfant|||jusqu'à 12 ans ,Climatisation # Jeux pour enfants # Parking privé,Banquet # Séminaire
RESAQU064V505FK6,03/01/2020,Restaurant,Restaurant traditionnel,Cuisine traditionnelle,Auberge du chemin de Perchades,,,,Quartier Arroust,64260,BILHERES,64128,,+33 5 59 82 66 89,jeanlouisgg@wanadoo.fr,http://www.gite-ossau.com, -0.4480414,43.0610905,Oui,,Esprit Parc National - Pyrénées,,,40,02/01/2020|31/12/2020|||||,"Menu adulte|12,00|22,00|",Parking privé # Terrasse,
RESAQU064FS000O4,03/01/2020,Restaurant,Restaurant gastronomique,Cuisine gastronomique,Auberge du Cheval Blanc ,,,68 rue Bourgneuf,,64100,BAYONNE,64102,+33 5 59 59 01 33,,chevalblanc.bayonne@orange.fr,http://www.cheval-blanc-bayonne.com, -1.4716479,43.4908829,Oui,,Tables & Auberges de France,Tables et Auberges de France,,80,01/12/2019|31/12/2020|12:00|13:30|19:45|21:30|Dimanche soir - Lundi - Samedi midi,"A la carte|45,00|57,00|repas # Menu adulte|25,00|84,00| # Menu enfant|15,00||",Climatisation # Terrasse,Banquet # Séminaire # Traiteur # Wifi
RESAQU064FS001RA,03/01/2020,Restaurant,Pizzeria # Restaurant traditionnel,Cuisine traditionnelle,Auberge du Cheval Blanc,,,Place Royale,,64390,SAUVETERRE-DE-BEARN,64513,+33 5 59 67 36 52,,,, -0.9391379,43.3998013,Oui,,,,,140,,,Bar # Terrasse,
RESAQU024FS0003Q,02/01/2018,Restaurant,Restaurant traditionnel,Cuisine traditionnelle # Cuisine végétarienne # Régionale française # Tartes # Viandes,Auberge du Coq,,,,Le bourg ,24580,FLEURAC,24183,+33 5 53 05 98 71,,verines@hotmail.fr,,1.0037220,45.0085520,,,,,,30,,,Bar # Terrasse,Séminaire
RESAQU064FS000DB,03/01/2020,Restaurant,Pizzeria # Restaurant traditionnel,Cuisine traditionnelle,Auberge du Foirail,,,35 rue du Jeu de Paume,,64120,SAINT-PALAIS,64493,+33 5 59 65 73 22,,foirail64120@gmail.com,, -1.0349459,43.3280584,,,,,,140,,,Bar # Terrasse,Banquet # Plats à emporter # Wifi
RESAQU064FS001EN,03/01/2020,Restaurant,Restaurant traditionnel,Cuisine traditionnelle # Poisson / fruits de mer # Viandes,Auberge du Fronton,,,Fronton du Bourg,,64480,USTARITZ,64547,+33 5 59 93 00 39,+33 6 15 16 70 48,aubergedufronton@sfr.fr ,http://www.aubergedufronton.fr, -1.4526480,43.3944235,Oui,,,,,130,,Menu adulte|||Menu du jour # Menu enfant|||Menu enfant,Bar # Jeux pour enfants # Matériel enfant # Terrasse,Banquet
RESAQU040FS000NJ,27/01/2020,Restaurant,Restaurant traditionnel,Cuisine traditionnelle,Auberge du Grand Mégnos,,,1155 route de Laglorieuse,,40090,BOUGUE,40051,+33 5 58 52 98 68,,aubergedugrandmegnos@orange.fr,http://www.aubergegrandmegnos.com, -0.3968166,43.8763810,Oui,,,,,60,,Menu adulte|||Menu du jour (hors week-end et jours fériés) # A la carte|||Ticket moyen à la carte,Jardin # Parking privé # Terrasse,Plats à emporter
RESAQU064FS000MW,30/01/2020,Restaurant,Restaurant traditionnel,Cuisine traditionnelle,Auberge du Lausset,,,,Bourg,64130,L'HOPITAL-SAINT-BLAISE,64264,+33 5 59 66 53 03,,auberge.lausset@orange.fr,, -0.7699495,43.2513920,Oui,,Restaurant de Qualité,,,80,01/01/2020|31/12/2020|09:30|15:30|18:30|22:30|Mardi - Mercredi,"Menu adulte|12,00||Plat du jour # A la carte|9,00|22,00|",Bar # Jardin # Parking privé # Terrasse,Banquet # Panier randonneur # Séminaire # Traiteur
RESAQU040FS00001,03/01/2020,Restaurant,Restaurant traditionnel,Cuisine traditionnelle,Auberge du Lavoir,,,21 rue de l'Airial ,,40110,MORCENX-LA-NOUVELLE,40197,+33 5 58 08 16 20,,,http://www.auberge-du-lavoir.com, -0.9216000,44.0101810,,,,,,60,,,Parking privé # Terrasse,
RESAQU047FS0003F,03/01/2020,Hôtel restaurant,Restaurant traditionnel # Traiteur,Cuisine traditionnelle # Poisson / fruits de mer # Régionale française # Viandes,Auberge du Lion d'Or,,,1 rue de la République,,47200,MARMANDE,47157,+33 5 53 64 21 30,,hotel.du.lion.dor@wanadoo.fr,http://www.leliondor.fr,0.167230,44.497000,Oui,,Sourire du Lot-et-Garonne,Logis,2 cheminées # 3 cocottes,150,01/01/2020|31/12/2020|||||Dimanche soir - Vendredi soir,"Menu adulte|14,00|35,00| # Menu enfant|9,50|15,50|enfant jusqu'à 12 ans",Bar # Climatisation # Garage privé # Jeux pour enfants # Matériel enfant # Parking privé # Salle(s) de réunion # Terrasse,Banquet # Panier randonneur # Plats à emporter # Séminaire # Traiteur # Wifi
RESAQU04001QBFC2,12/01/2018,Restaurant,,,Auberge du Moulin,,,,Claquin,40300,BELUS,40034,+33 5 58 57 87 71,,,, -1.1140720,43.5891530,,,,,,,,,,
RESAQU024FS0000J,07/01/2020,Restaurant,Restaurant traditionnel,Cuisine traditionnelle # Régionale française,Auberge du Musée,,,6 rue Raoul Grassin,,24400,MUSSIDAN,24299,+33 5 53 80 56 45,,saintmartin@aubergedumusee.com,http://www.aubergedumusee.com,0.36259174,45.0374896,Oui,,,,,40,01/01/2020|31/12/2020|||||,"Menu adulte|11,50||formule du midi # Menu adulte|19,00|25,00|Menu jusqu'à 8 ans # Menu enfant|9,00|13,00|Menu jusqu'à 16 ans",Bar # Jeux pour enfants # Parc # Terrasse,
RESAQU0240002658,03/01/2020,Hôtel restaurant,Restaurant traditionnel,Cuisine gastronomique # Cuisine traditionnelle,Auberge du Parc,,,Place René Lavaud,,24390,HAUTEFORT,24210,+33 5 53 50 88 98,,aubergeduparc@free.fr,http://www.aubergeduparc-hautefort.fr,1.1430000,45.2596000,,,,Les Toques du Périgord,,,,,,
RESAQU04001QH87Q,03/01/2020,Restaurant,Restaurant traditionnel,Cuisine traditionnelle # Régionale française,Auberge du Pas de Vent,,,281 avenue du Pas de Vent,,40350,POUILLON,40233,+33 5 58 98 34 65,,aubergedupasdevent@hotmail.com,http://www.auberge-dupasdevent.com, -0.9996378,43.6039550,Oui,,Restaurant de Qualité,,,36,,"Menu adulte||13,00|Menu du jour (lun au ven, sauf jours fériés) # Menu adulte||28,00|Midi et soir toute la semaine # Menu enfant||10,00|- de 12 ans # A la carte|14,00|26,00|",Bar # Parking privé # Terrasse,Banquet # Plats à emporter
RESAQU024V50032L,28/04/2016,Ferme auberge,Restaurant traditionnel,Cuisine traditionnelle,Auberge du Périgord vert,,,Fardoux,,24450,LA COQUILLE,24133,,,,,0.9563590,45.5473460,,,,,,,,,,
RESAQU0240005029,03/01/2020,Restaurant,Restaurant traditionnel,Régionale française,Auberge du Peyrol,,,,Le sol,24290,SERGEAC,24531,+33 5 53 50 72 91,,,,1.0649350,44.9956130,,,,,,50,,,Jardin # Parking privé # Terrasse,Banquet
RESAQU024V507HDJ,03/01/2020,Restaurant,Bistrot / bar à vin # Restaurant traditionnel,Cuisine traditionnelle # Nouvelle cuisine française # Régionale française,Auberge du Pont,Cubas,D 704,,,24390,CHERVEIX-CUBAS,24120,+33 5 53 42 34 51,,,,1.12707017,45.2969276,Oui,,,,,50,,,Bar,
RESAQU024FS000BW,03/01/2020,Restaurant,Pizzeria # Restaurant traditionnel,Cuisine traditionnelle # Glaces # Régionale française,Auberge du Pont,Le Bourg,,,,24290,SAINT-LEON-SUR-VEZERE,24443,+33 5 53 50 73 07,,,,1.0891366,45.0107782,Oui,,,,,,,,Bar # Terrasse,Traiteur
RESAQU024FS0008N,03/01/2020,Hôtel restaurant,Restaurant traditionnel # Traiteur,Cuisine traditionnelle # Régionale française,Auberge du Presbytère,,,Le Bourg,,24360,SAINT-BARTHELEMY-DE-BUSSIERE,24381,+33 5 53 56 42 44,,,,0.755665,45.6402506,Oui,,,,,60,,,Jardin # Terrasse,Banquet # Plats à emporter # Traiteur # Wifi
RESAQU040FS0003G,31/12/2018,Restaurant,Restaurant traditionnel,Cuisine traditionnelle,Auberge du Prieuré,Chemin Vicinal ,,,,40420,LE SEN,40297,+33 6 73 22 75 46,,,, -0.5016696,44.1255185,Oui,,,,,120,,,Bar # Garage privé # Jardin,Banquet # Séminaire # Traiteur
RESAQU064FS0001J,29/01/2020,Hôtel restaurant,Restaurant traditionnel,Cuisine traditionnelle,Auberge du Relais,,,460 Grand Route,,64300,BERENX,64112,+33 5 59 65 30 56,,contact@auberge-du-relais.com,http://auberge-du-relais.com, -0.8565760,43.5022696,Non,Handicap auditif # Handicap mental # Handicap moteur,Assiette de Pays # Maître Restaurateur # Qualité Tourisme,Logis,2 cocottes,90,14/01/2020|19/12/2020|||||,"Menu adulte|14,00|32,00| # Menu enfant|9,00|15,00|",Bar # Climatisation # Jardin # Parking privé # Piscine # Salle(s) de réunion # Terrasse,Banquet # Séminaire # Traiteur # Wifi
RESAQU040V5069PE,03/01/2020,Restaurant,Restaurant traditionnel,Cuisine traditionnelle,Auberge du Soleil,,,64 route du Lac,,40140,AZUR,40021,+33 5 58 77 45 39,,contact@aubergedusoleilazur.fr,, -1.3029928,43.7980287,,,Tables & Auberges de France,Tables et Auberges de France,,,,,,
RESAQU024FS0005Q,03/01/2020,Restaurant,Restaurant traditionnel,Cuisine méditerranéenne # Régionale française,Auberge du Vimont,,,,Le Moustier,24620,PEYZAC-LE-MOUSTIER,24326,+33 5 53 50 75 17,,aubergeduvimont@aol.fr ,,1.0599652,44.9939031,Oui,,,,,,,,,
RESAQU040015IQGQ,29/01/2020,Restaurant,Restaurant traditionnel,Cuisine traditionnelle # Régionale française,Auberge d'Ugne,,,2319 route d'Ugne ,,40230,SAUBRIGUES,40292,+33 5 58 77 94 10,,auberge-d-ugne@orange.fr,http://www.auberge-dugne.com/, -1.3346209,43.5910822,,,,,,200,01/01/2020|31/12/2020|||||,,Bar # Climatisation # Jardin # Jeux pour enfants # Matériel enfant # Parc # Parking privé # Terrasse,Banquet # Plats à emporter # Séminaire # Traiteur # Wifi
RESAQU064V509K03,03/01/2020,Ferme auberge,Restaurant traditionnel,Cuisine traditionnelle # Régionale française,Auberge d'Urte,,,,Quartier Pédéhourat,64260,LOUVIE-JUZON,64353,+33 5 59 05 83 07,,,, -0.4212570,43.0867710,,,,,,25,,,,
RESAQU064FS000NT,03/01/2020,Restaurant,Restaurant traditionnel,Cuisine traditionnelle,Auberge Elichalt,,,,,64560,SAINTE-ENGRACE,64475,+33 5 59 28 61 63,,a.burguburu@wanadoo.fr,http://www.gites-burguburu.com/, -0.8100163,42.9957726,Oui,,,,,35,,,Bar # Parking privé # Terrasse,Panier randonneur # Wifi
RESAQU064FS000OM,30/01/2020,Restaurant,Restaurant traditionnel,Cuisine traditionnelle,Auberge Etchebarne,,,Au bourg,,64240,MENDIONDE,64377,+33 5 59 29 62 63,,restaurant.etchebarne@orange.fr,http://www.restaurant-etchebarne.com/, -1.2534749,43.3938250,,,Café de Pays # Maître Restaurateur,,,70,,"Menu adulte|||le midi, en semaine # A la carte|||Menu adulte",Bar,Wifi
RESAQU064V59CHD6,30/01/2020,Restaurant,Restaurant traditionnel,Régionale française,Auberge Goxoki,,,,Au bourg,64640,SAINT-MARTIN-D'ARBEROUE,64489,+33 5 59 29 64 71,,,, -1.1808220,43.2821710,Non,,,,,,,,,
RESAQU064FS001TA,03/01/2020,Restaurant,Bistrot / bar à vin # Restaurant traditionnel,Cuisine bistronomique # Régionale française,Auberge Iparla,,,Place du fronton,,64780,BIDARRAY,64124,+33 5 59 37 87 09,,auberge.iparla@hotmail.com,http://www.auberge-iparla-bidarray.fr, -1.3498790,43.2653150,Non,,,,,150,,,Bar # Climatisation # Jeux pour enfants # Terrasse,Banquet # Panier randonneur # Séminaire # Wifi
RESAQU024FS0003K,01/01/2017,Ferme auberge,Restaurant traditionnel,Cuisine traditionnelle,Auberge Jolibois,,,,Jolibois,24610,SAINT-MEARD-DE-GURCON,24461,+33 5 53 82 47 02,,aubergejolibois@orange.fr ,http://www.aubergejolibois.fr,0.20335,44.89805,Oui,,,,,,,,Parc # Terrasse,Banquet
RESAQU064FS000M9,09/01/2020,Restaurant,Restaurant traditionnel # Restauration rapide,Cuisine traditionnelle # Poisson / fruits de mer # Régionale française # Salades # Sandwichs # Tapas # Viandes,Auberge La Caverne,,,Bourg,,64440,LARUNS,64320,+33 5 59 05 34 40,+33 7 69 19 10 83 # +33 6 11 71 45 19,contactlacaverne64@gmail.com,https://aubergelacaverne.eatbu.com/, -0.4407230,42.9519219,Oui,,,,,100,01/01/2020|31/12/2020|||||,"Menu adulte|13,00|17,00|1/4 de vin inclus # A la carte|4,00|4,00|Desserts # A la carte|10,50|11,00|Salades # A la carte|11,00|20,00|Plats",Bar # Terrasse,Banquet # Panier randonneur # Wifi
RESAQU033FS000MM,03/01/2020,Hôtel restaurant,Restaurant traditionnel,Cuisine gastronomique # Régionale française,Auberge La Crémaillère,,,8 place du Général de Gaulle,,33730,VILLANDRAUT,33547,+33 5 56 25 30 67,,ronan.talbot@neuf.fr,http://www.aubergelacremaillere.com, -0.372817,44.458432,Oui,,Tables & Auberges de France,Logis # Tables et Auberges de France,2 cheminées # 2 cocottes,65,01/01/2020|31/05/2020|12:00|14:00|19:00|21:00|Samedi - Vendredi # 01/06/2020|13/09/2020|12:00|14:00|19:00|21:00| # 14/09/2020|31/12/2020|12:00|14:00|19:00|21:00|Samedi - Vendredi,"Menu adulte|13,00||midi en semaine hors jours fériés # Menu adulte|26,00|44,00| # Menu enfant|9,00||",Bar # Terrasse,Banquet # Séminaire # Wifi
RESAQU0240008249,02/10/2017,Hôtel restaurant,Brasserie # Restaurant traditionnel,Cuisine traditionnelle,Auberge La Grignotière,,,"17, avenue de la Préhistoire",,24620,LES EYZIES,24172,+33 5 53 04 88 68,,,,1.0131357,44.9359695,,,,,,50,,,,
RESAQU064FS000JI,03/01/2020,Restaurant,Bistrot / bar à vin # Restaurant traditionnel,Cuisine gastronomique # Cuisine traditionnelle # Cuisine végétarienne # Glaces # Poisson / fruits de mer # Régionale française # Sandwichs # Tartes,Auberge la Promenade,,,Rue de la République,,64290,LASSEUBE,64324,+33 5 59 04 26 24,,auberge.la.promenade@orange.fr,, -0.4752430,43.2208540,,,,,,60,,Menu adulte|||Menu du jour,Bar # Climatisation # Terrasse,Banquet # Traiteur
RESAQU024V500NT2,28/04/2016,Hôtel restaurant,Restaurant traditionnel,Cuisine traditionnelle,Auberge La Sobronade,Le bourg,,,,24800,VAUNAC,24567,+33 5 53 52 39 29,,,,0.8606090,45.3640040,,,,,,100,,,Bar # Terrasse,
RESAQU047FS000CR,03/01/2020,Restaurant,Restaurant gastronomique,Cuisine gastronomique,Auberge La Table des Epicuriens,,,,Domaine de Beunes,47440,PAILLOLES,47198,+33 5 53 41 67 20,,contact@domaine-de-beunes.fr,http://www.domaine-de-beunes.fr,0.6426039,44.4705770,,,,,,50,01/01/2020|31/12/2020|||||Dimanche soir - Jeudi - Lundi - Mardi - Mercredi - Samedi midi - Vendredi,"Menu adulte|38,00|38,00| # Menu adulte|25,00||Groupes",Jardin # Jeux pour enfants # Matériel enfant # Parking privé # Piscine # Terrasse,Banquet # Séminaire # Wifi
RESAQU024FS0005R,16/06/2017,Ferme auberge,Restaurant traditionnel,Cuisine traditionnelle,Auberge la Taulado ,,,,La Genèbre ,24620,LES EYZIES,24172,+33 5 53 29 67 63,+33 6 30 07 14 57,auberge.taulado.sireuil@wanadoo.fr,,1.08035087,44.9412910,Oui,,,,,,,,,
RESAQU064V54YR7P,03/01/2020,Hôtel restaurant,Restaurant traditionnel,Cuisine traditionnelle,Auberge Lamothe,,,,Serrot d'Ichère,64570,LOURDIOS-ICHERE,64351,+33 5 59 34 41 53,,,, -0.6378803,43.0395318,Oui,,,,,30,01/01/2020|31/12/2020|||||,"Menu adulte|16,50|23,00|",,
