CD_DEPOT,LB_DEPOT,TYPE_DEPOT,LB_TYPE_DEPOT,COORD_TEL,COORD_FAX,COORD_MAIL,COORD_SITEWEB,ADR_L1,ADR_L2,ADR_L3,ADR_L4_NUM,ADR_L4_NUMEXT,ADR_L4_VOIE,ADR_L5,ADR_L6_CP,ADR_L6_COMM,INSEE_COMMUNE,CD_CANTON,RESPONSABLE,FL_DESSERVI,FL_INTERNET,NB_POSTEINT,NB_POSTEPUB,NB_MULT,ACCESS_HANDICAPES,H_DEB_MATIN_LUNDI,H_FIN_MATIN_LUNDI,H_DEB_APRM_LUNDI,H_FIN_APRM_LUNDI,H_DEB_MATIN_MARDI,H_FIN_MATIN_MARDI,H_DEB_APRM_MARDI,H_FIN_APRM_MARDI,H_DEB_MATIN_MERCREDI,H_FIN_MATIN_MERCREDI,H_DEB_APRM_MERCREDI,H_FIN_APRM_MERCREDI,H_DEB_MATIN_JEUDI,H_FIN_MATIN_JEUDI,H_DEB_APRM_JEUDI,H_FIN_APRM_JEUDI,H_DEB_MATIN_VENDREDI,H_FIN_MATIN_VENDREDI,H_DEB_APRM_VENDREDI,H_FIN_APRM_VENDREDI,H_DEB_MATIN_SAMEDI,H_FIN_MATIN_SAMEDI,H_DEB_APRM_SAMEDI,H_FIN_APRM_SAMEDI,H_DEB_MATIN_DIMANCHE,H_FIN_MATIN_DIMANCHE,H_DEB_APRM_DIMANCHE,H_FIN_APRM_DIMANCHE,latitude,longitude,result_label,result_score,result_type,result_id,result_housenumber,result_name,result_street,result_postcode,result_city,result_context,result_citycode
1625,Saint-Cibard,25,,557406102,557406102,mairiesaintcibard@wanadoo.fr,,BDP Saint-Cibard,,MAIRIE,,B,,,33570,SAINT CIBARD,33386,31,PETIT Josiane,Oui,0,0,,0,,,,,,,,,,,,,,,,,,,,,,,,,,,,,,44.93933,-0.023062,Galan 33570 Saint-Cibard,0.68,locality,33386_XXXX_87bb5c,,Galan,,33570,Saint-Cibard,"33, Gironde, Aquitaine",33386
1722,Yvrac,16,,556066878,,biblioyvrac-mairie@orange.fr,,BDP Yvrac,,,9,,AVENUE DE BLANZAC,,33370,YVRAC,33554,55,,Oui,1,0,,0,,,,,,,, 16h00, 18h00,,, 14h30, 18h00,,,,,,,,,10h00, 12h00,,,,,,,44.88059,-0.461616,9 Avenue de Blanzac 33370 Yvrac,0.91,housenumber,ADRNIVX_0000000276168419,9,Avenue de Blanzac,,33370,Yvrac,"33, Gironde, Aquitaine",33554
1528,Saint-Sauveur-de-Puynormand,25,,557696263,557697771,mairiesaintsauveurdepuynormand@wanadoo.fr,,BDP Saint-Sauveur-de-Puynormand,,MAIRIE,,B,,,33660,SAINT SAUVEUR DE PUYNORMAND,33472,31,GAURY Marie-Claire,Oui,0,0,,0,Accès aux personnes à mobilité réduite,,,,,,,,,,,,,,,,,,,,,,,,,,,,,45.003795,-0.024776,Puyreau 33660 Saint-Sauveur-de-Puynormand,0.73,locality,33472_B050_0cc486,,Puyreau,,33660,Saint-Sauveur-de-Puynormand,"33, Gironde, Aquitaine",33472
1714,Sadirac,4,,556306117,,bibliotheque@sadirac.com,,BDP Sadirac,,,,,PLACE DE L'ÉGLISE,,33670,SADIRAC,33363,23,,Oui,1,4,,3,accès aux personnes à mobilité réduite,,,,,,, 16h00, 18h30,09h30, 12h30, 14h30, 18h30,,,,,,, 16h00, 18h30,09h30, 12h30,,,,,,,44.782856,-0.41119,Chemin de l'Église 33670 Sadirac,0.63,street,33363_0083_7ae77e,,Chemin de l'Église,,33670,Sadirac,"33, Gironde, Aquitaine",33363
1672,Camarsac,20,,556301017,556301324,mairie.camarsac@wanadoo.fr,,BDP Camarsac,,,12,,ROUTE DE BERGERAC,,33750,CAMARSAC,33083,23,,Oui,0,0,,0,accès aux personnes à mobilité réduite,,,,,,,,,,,,,,,,,,,,,10h00, 12h00,,,,,,,44.832836,-0.36422,12 Route de Bergerac 33750 Camarsac,0.91,housenumber,ADRNIVX_0000000276294660,12,Route de Bergerac,,33750,Camarsac,"33, Gironde, Aquitaine",33083
1598,Le Nizan,19,,556252952,556252690,e.lenizan@ac-bordeaux.fr,,BDP Le Nizan,,,6,,RUE ANDRIVET,,33430,LE NIZAN,33305,4,,Oui,0,0,,0,Accès aux personnes à mobilité réduite,,, 17h00, 18h30,,, 17h00, 18h30,,,,,,, 17h00, 18h30,,, 17h00, 18h30,,,,,,,,,44.477041,-0.267907,6 L'Andrivet 33430 Le Nizan,0.73,housenumber,ADRNIVX_0000000276606641,6,L'Andrivet,,33430,Le Nizan,"33, Gironde, Aquitaine",33305
1521,Cazalis,19,,556652204,556652546,biblicazalis@orange.fr,,BDP Cazalis,,MAIRIE,16,,L'ÉGLISE,,33113,CAZALIS,33115,50,BOUDIGUES Corinne,Oui,1,1,,1,Accès aux personnes à mobilité réduite,,,,,,,,,10h00, 11h00, 17h00, 18h00,,,,,10h30, 11h30,,,,,,,,,,,44.341929,-0.379546,16 L'Église 33113 Cazalis,0.91,housenumber,ADRNIVX_0000000335665736,16,L'Église,,33113,Cazalis,"33, Gironde, Aquitaine",33115
1626,Portets,22,,556671775,556677020,marion.roche@cc-podensac.fr,,BDP Portets,,CDC PODENSAC-PRIMEVER ,12,,RUE DU MARÉCHAL LECLERC DE HAUTECLOCQUE,,33720,PODENSAC,33334,36,SARLET Guylaine,Oui,0,0,,0,,,, 17h00, 18h30,,, 17h00, 18h30,,, 15h00, 17h00,,, 17h00, 18h30,,,,,11h00, 12h00,,,,,,,,,,,,,,,,,,,
1761,Le Pian-Médoc,5,,556351774,556358756,bibliotheque.lepian@wanadoo.fr,,BDP Le Pian-Médoc,,,260,,RUE PASTEUR,,33290,LE PIAN MÉDOC,33322,6,,Oui,1,0,,0,Accès aux personnes à mobilité réduite,,, 15h00, 18h00,,,,,10h00, 12h00, 15h00, 19h00,10h00, 12h00, 16h00, 18h00,,,,,10h00, 12h00,,,,,,,44.955112,-0.670021,260 Rue Pasteur 33290 Le Pian-Médoc,0.91,housenumber,ADRNIVX_0000000276067525,260,Rue Pasteur,,33290,Le Pian-Médoc,"33, Gironde, Aquitaine",33322
1707,Carignan-de-Bordeaux,10,,556683522,556683522,bibliotheque@carignandebdx.fr,http://mairie.carignandebdx.free.fr/La_bibliothèque.html,BDP Carignan-de-Bordeaux,,,2,,PLACE GONFREVILLE,,33360,CARIGNAN DE BORDEAUX,33099,23,,Oui,1,1,,0,Accès aux personnes à mobilité réduite,,,,,,, 13h30, 16h30,,, 13h30, 18h30,,,,,,,,,10h00, 12h00,,,,,,,44.812348,-0.470876,Place Gonfreville 33360 Carignan-de-Bordeaux,0.87,street,33099_0047_b0cdfe,,Place Gonfreville,,33360,Carignan-de-Bordeaux,"33, Gironde, Aquitaine",33099
1199,Eysines,32,,556578486,,mediatheque@eysines.fr,http://www.ville-eysines.fr/,BDP Eysines,,,,,CENTRE CULTUREL LE PLATEAU,,33320,EYSINES,33162,6,,Non,0,0,,0,Accès aux personnes à mobilité réduite,,,,,,,,,,,,,,,,,,,,,,,,,,,,,,,,,,,,,,,,,
1674,La Sauve,9,,557970218,557970210,bibliothequelasauvemajeure@orange.fr,,BDP La Sauve,,,19,,RUE SAINT JEAN,,33670,LA SAUVE,33505,23,,Oui,0,0,,0,accès aux personnes à mobilité réduite,,,,,,, 16h00, 18h00,,, 15h00, 18h00,,,,,,, 16h00, 18h00,10h00, 12h00,,,,,,,44.769578,-0.311928,19 Rue Saint-Jean 33670 La Sauve,0.91,housenumber,ADRNIVX_0000000349659279,19,Rue Saint-Jean,,33670,La Sauve,"33, Gironde, Aquitaine",33505
1477,Gujan-Mestras,32,,557525460,557525461,biblio@ville-gujanmestras.fr,http://mediatheque.ville-gujanmestras.fr/,BDP Gujan-Mestras,,,,,ALLÉE MOZART,,33470,GUJAN MESTRAS,33199,49,,Non,0,0,,0,,,,,,,,,,,,,,,,,,,,,,,,,,,,,,44.619249,-1.075088,Allée Mozart 33470 Gujan-Mestras,0.91,street,33199_0859_f6df77,,Allée Mozart,,33470,Gujan-Mestras,"33, Gironde, Aquitaine",33199
2042,Noaillac,0,,556619494,,mediathequenoaillac@orange.fr,,BDP Noaillac,,,,,HÔTEL DE VILLE,,33190,NOAILLAC,,38,,Non,0,0,,0,,,,,,,,,,,, 15h00, 19h00,,,,,,,,,,,,,,,,,44.514112,-0.034498,Canille 33190 Noaillac,0.53,locality,33306_B013_e00ad6,,Canille,,33190,Noaillac,"33, Gironde, Aquitaine",33306
1174,Gornac,13,,556619615,556619680,bibliotheque@gornac.fr,,BDP Gornac,,,1,,PLACE DE LA MAIRIE,,33540,GORNAC,33189,47,,Oui,1,1,,0,Accès aux personnes à mobilité réduite,,,,,,,,,,, 15h00, 17h00,,,,,,, 17h00, 19h00,,,,,,,,,44.662419,-0.181675,1 Place de la Mairie 33540 Gornac,0.91,housenumber,ADRNIVX_0000000276520466,1,Place de la Mairie,,33540,Gornac,"33, Gironde, Aquitaine",33189
1523,Le Fieu,25,,557696438,557697208,mairie.lefieu@wanadoo.fr,,BDP Le Fieu,,MAIRIE,,B,,,33230,LE FIEU,33166,22,BENECH Mariette,Oui,0,0,,0,Accès aux personnes à mobilité réduite,,,,,,,,,,,,,,,,,,,,,,,,,,,,,45.063517,-0.029298,Cossy 33230 Le Fieu,0.62,locality,33166_B027_52ed91,,Cossy,,33230,Le Fieu,"33, Gironde, Aquitaine",33166
1708,Cénac,9,,557971473,,bibliocenac.33@wanadoo.fr,,BDP Cénac,,,2,B,AVENUE DE LA RÉPUBLIQUE,,33360,CÉNAC,33118,23,,Oui,1,0,,0,Accès aux personnes à mobilité réduite,,,,,,, 16h00, 18h00,,, 16h30, 18h30,,,,,,, 16h00, 18h00,10h30, 12h30,,,,,,,44.779966,-0.462094,Avenue de la République 33360 Cénac,0.82,street,33118_0065_bb628f,,Avenue de la République,,33360,Cénac,"33, Gironde, Aquitaine",33118
1739,Arsac,4,,557888656,556588022,bibliotheque@arsac.fr,www.arsac.fr,BDP Arsac,,,14,,AVENUE DE LIGONDRAS,,33460,ARSAC,33012,20,,Oui,1,0,,0,,,,,,,, 16h00, 18h00,10h30, 12h00, 14h30, 18h00,,,,,,, 16h00, 18h30,10h00, 12h30,,,,,,,45.003645,-0.685468,Avenue de Ligondras 33460 Arsac,0.83,street,33012_XXXX_c547d9,,Avenue de Ligondras,,33460,Arsac,"33, Gironde, Aquitaine",33012
1782,Cars,15,,557420920,557422169,bibliothequecars@wanadoo.fr,,BDP Cars,,,1,,LE BOURG,,33390,CARS,33100,7,,Oui,1,1,,1,Accès aux personnes à mobilité réduite,,,,,,,,,,, 15h00, 17h30,,,,,,, 16h00, 17h30,,,,,,,,,45.13016,-0.620735,Le Bourg 33390 Cars,0.82,locality,33100_B022_3bd98b,,Le Bourg,,33390,Cars,"33, Gironde, Aquitaine",33100
1108,Camblanes-et-Meynac,10,,557971693,556206306,alivreouvert@club-internet.fr,,BDP Camblanes-et-Meynac,,MAIRIE,,,CHEMIN DES ÉCOLIERS,,33360,CAMBLANES ET MEYNAC,33085,23,FERION LE BOULANGER Marie-Laure,Oui,1,1,,0,Accès aux personnes à mobilité réduite,10h00, 12h00,,,12h00, 13h30, 16h30, 18h00,,, 14h30, 17h30,,,,,,, 16h30, 18h00,10h00, 12h00,,,,,,,44.765364,-0.487273,Chemin des Écoliers 33360 Camblanes-et-Meynac,0.91,street,33085_0039_29f7da,,Chemin des Écoliers,,33360,Camblanes-et-Meynac,"33, Gironde, Aquitaine",33085
1759,Labarde,26,,557886032,557887257,mairie-labarde@wanadoo.fr,,BDP Labarde,,MAIRIE,1,,CHEMIN DE LA LAURINCE,,33460,LABARDE,33211,20,BARGIS Marie,Oui,0,0,,0,Accès aux personnes à mobilité réduite,,,,,,,,,,,,,,, 17h00, 19h00,,,,,,,,,,,,,45.022723,-0.640284,1 Chemin de la Laurina 33460 Labarde,0.79,housenumber,ADRNIVX_0000000348665965,1,Chemin de la Laurina,,33460,Labarde,"33, Gironde, Aquitaine",33211
1797,Saint-Aubin-de-Blaye,14,,557326203,557327825,st-aubindeblaye@wanadoo.fr,,BDP Saint-Aubin-de-Blaye,,MAIRIE,,B,,,33820,SAINT AUBIN DE BLAYE,33374,40,BOUDAUD Françoise,Oui,1,5,,0,Accès aux personnes à mobilité réduite,,,,,,,,,,,,,,,,,,,,,,,,,,,,,45.244684,-0.580826,Azac 33820 Saint-Aubin-de-Blaye,0.76,locality,33374_B004_aebd56,,Azac,,33820,Saint-Aubin-de-Blaye,"33, Gironde, Aquitaine",33374
1764,Lugon-et-l'Ile-du-Carnay,9,,557843332,516440453,bibliothequedelugon33@wanadoo.fr,,BDP Lugon-et-l'Ile-du-Carnay,,,5,,PLACE JEAN MOULIN,,33240,LUGON ET L ILE DU CARNEY,33259,24,,Oui,1,1,,0,,09h00, 12h00, 14h00, 18h00,,, 14h00, 18h00,, 00h10, 14h00, 18h00,,, 14h00, 18h00,09h00, 12h00, 14h00, 18h00,,,,,,,,,44.948174,-0.359652,Le Carney 33240 Lugon-et-l'Île-du-Carnay,0.5,locality,33259_B033_ee973c,,Le Carney,,33240,Lugon-et-l'Île-du-Carnay,"33, Gironde, Aquitaine",33259
1648,Carcans,15,,556039036,,bibliotheque_carcans@orange.fr,,BDP Carcans,,,21,,ROUTE DE BORDEAUX,,33121,CARCANS,33097,42,,Oui,0,0,,0,Accès aux personnes à mobilité réduite,11h00, 12h00,,,11h00, 12h00,,,,, 17h00, 18h00,,, 16h30, 17h30,,,,,11h00, 12h00,,,,,,,45.078803,-1.042484,21 Route de Bordeaux 33121 Carcans,0.91,housenumber,ADRNIVX_0000000275971075,21,Route de Bordeaux,,33121,Carcans,"33, Gironde, Aquitaine",33097
1733,Sainte-Foy-la-Grande,4,,557462970,,mediatheque@saintefoylagrande.net,http://bm-saintefoylagrande.jimdo.com/,BDP Sainte-Foy-la-Grande,,,8,,RUE JEAN LOUIS FAURE,,33220,SAINTE FOY LA GRANDE,33402,41,,Oui,1,6,,6,Accés aux personnes à mobilité réduite,,, 14h00, 18h30,09h00, 12h30, 14h00, 18h30,09h00, 12h30, 14h00, 18h30,,, 14h00, 18h30,09h00, 12h30, 14h00, 18h30,09h00, 12h30,,,,,,,44.841862,0.2139,8 Rue Jean Louis Faure 33220 Sainte-Foy-la-Grande,0.92,housenumber,ADRNIVX_0000000276315491,8,Rue Jean Louis Faure,,33220,Sainte-Foy-la-Grande,"33, Gironde, Aquitaine",33402
2008,Gradignan,32,,557121890,557121891,mediatheque@ville-gradignan.fr,http://www.lamediathequedegradignan.fr/,BDP Gradignan,,,32,,ROUTE DE LÉOGNAN,,33170,GRADIGNAN,33192,59,,Non,0,0,,0,,,,,,,,,,,,,,,,,,,,,,,,,,,,,,44.767954,-0.611587,32 Route de Léognan 33170 Gradignan,0.93,housenumber,ADRNIVX_0000000276408971,32,Route de Léognan,,33170,Gradignan,"33, Gironde, Aquitaine",33192
1926,Donnezac,20,,961049116,557580768,pointlecturedonnezac@orange.fr,,BDP Donnezac,,,36,,LE BOURG,,33860,DONNEZAC,33151,44,,Oui,0,0,,0,Accès aux personnes à mobilité réduite,,, 14h30, 15h30,,,,,,, 14h30, 16h30,,,,,,,,,10h00, 12h00,,,,,,,45.247876,-0.445262,Le Bourg 33860 Donnezac,0.8,locality,33151_B033_ce4de4,,Le Bourg,,33860,Donnezac,"33, Gironde, Aquitaine",33151
1021,Salles,17,,556887235,556884395,bibliotheque.salles@orange.fr,,BDP Salles,,,34,,RUE DE LA HAUTE LANDE,,33770,SALLES,33498,5,,Oui,0,0,,0,Accès aux personnes à mobilité réduite,,,,,,,,,,,,,,,,,,,,,,,,,,,,,44.550274,-0.870809,Rue de la Haute Lande 33770 Salles,0.84,street,33498_0101_e88391,,Rue de la Haute Lande,,33770,Salles,"33, Gironde, Aquitaine",33498
1154,Aillas,20,,556653462,556653333,herve.gringoire@orange.fr,,BDP Aillas,,MAIRIE,,B,,,33124,AILLAS,33002,3,GOURGUE Laetitia,Oui,0,0,,0,,,, 16h00, 17h30,,,,,,,,,,,,,,, 14h30, 17h00,,,,,,,,,44.463305,-0.067749,Rhe 33124 Aillas,0.68,locality,33002_B219_25362f,,Rhe,,33124,Aillas,"33, Gironde, Aquitaine",33002
1487,Blasimon,20,,953842970,953842970,bibliotheque@blasimon.fr,,BDP Blasimon,,,30,,RUE EUGÈNE LESCOURT,,33540,BLASIMON,33057,47,,Oui,1,2,,0,,,,,,,,,,09h00, 12h00,,,,,,,,,,,10h00, 12h00,,,,,,,44.74861,-0.073004,30 Rue Eugène Lescourt 33540 Blasimon,0.91,housenumber,ADRNIVX_0000000276454900,30,Rue Eugène Lescourt,,33540,Blasimon,"33, Gironde, Aquitaine",33057
1671,Saint-Médard-d'Eyrans,22,,556726434,556726924,bibliotheque@saint-medard-deyrans.fr,http://biblistmed.pem-aquitaine.org,BDP Saint-Médard-d'Eyrans,,,9,,AVENUE DU 8 MAI,,33650,SAINT MÉDARD D EYRANS,33448,27,,Oui,0,0,,0,Accès aux personnes à mobilité réduite,,,,,,,,,,, 15h30, 17h30,,,,,,,,,10h00, 12h00,,,,,,,44.718776,-0.509681,9 Avenue du Huit Mai 33650 Saint-Médard-d'Eyrans,0.78,housenumber,ADRNIVX_0000000276468098,9,Avenue du Huit Mai,,33650,Saint-Médard-d'Eyrans,"33, Gironde, Aquitaine",33448
1685,Berson,9,,557643644,557642436,bibliotheque.berson@wanadoo.fr,http//:mairie-berson.com,BDP Berson,,,13,,AVENUE DE LA LIBÉRATION,,33390,BERSON,33047,7,,Oui,1,1,,1,,09h00, 10h00, 13h30, 16h30,09h00, 10h00, 13h30, 18h30,10h00, 12h00, 14h00, 17h00,09h00, 10h00, 13h30, 16h30,09h00, 10h00, 13h30, 16h30,,,,,,,,,45.108013,-0.585307,13 Avenue de la Libération 33390 Berson,0.91,housenumber,ADRNIVX_0000000275964237,13,Avenue de la Libération,,33390,Berson,"33, Gironde, Aquitaine",33047
1463,Baron,15,,557241157,557241705,ptlect.baron@wanadoo.fr,,BDP Baron,,MAIRIE,16,,LE BOURG,,33750,BARON,33028,16,THARAUD Hervé,Oui,1,1,,0,Accès aux personnes à mobilité réduite,,, 16h00, 17h00,,,,,,, 15h00, 18h00,,,,,,, 16h30, 18h00,10h30, 12h00,,,,,,,44.823784,-0.317285,Le Bourg 33750 Baron,0.79,locality,33028_B090_5b721e,,Le Bourg,,33750,Baron,"33, Gironde, Aquitaine",33028
1163,Cérons,21,,556270117,556272664,marion.roche@cc-podensac.fr,,BDP Cérons,,CDC PODENSAC-PRIMEVER ,12,,RUE DU MARÉCHAL LECLERC DE HAUTECLOCQUE,,33720,PODENSAC,33120,36,TUBAUD Michèle,Oui,1,0,,0,Accès aux personnes à mobilité réduite,,,,,,,,,,, 15h30, 17h30,,,,,,,,,10h00, 12h00,,,,,,,,,,,,,,,,,,,
1711,Montussan,16,,556728842,,bibliotheque-montussan@wanadoo.fr,,BDP Montussan,,,23,,ROUTE DE LA CURE,,33450,MONTUSSAN,33293,55,,Oui,1,2,,0,Accès aux personnes à mobilité réduite,,,,,,, 14h00, 18h30,09h00, 12h30, 14h00, 18h30,,, 14h00, 18h30,,,,,09h00, 12h00,,,,,,,44.883517,-0.424395,Route de la Cure 33450 Montussan,0.83,street,33293_0041_0345ab,,Route de la Cure,,33450,Montussan,"33, Gironde, Aquitaine",33293
1828,Canéjan,5,,556893807,557966601,mediatheque@canejan.fr,http://www.mediatheque-canejan.net,BDP Canéjan,,,10,,CHEMIN DE LA HOUSE,,33610,CANÉJAN,33090,59,,Oui,1,4,,0,Accès aux personnes à mobilité réduite,,,,,,, 14h00, 19h00,10h00, 12h00, 12h00, 18h00,,, 14h00, 19h00,,, 14h00, 19h00,10h00, 12h00, 12h00, 18h00,,,,,44.750882,-0.641919,Chemin de la House 33610 Canéjan,0.83,street,33090_6313_25058f,,Chemin de la House,,33610,Canéjan,"33, Gironde, Aquitaine",33090
1658,Vendays-Montalivet,9,,556731848,556733203,coinlecturevm@yahoo.fr,,BDP Vendays-Montalivet,,,11,,PLACE DE LA MAIRIE,,33930,VENDAYS MONTALIVET,33540,29,,Oui,1,7,,0,,,,,,,,,,,,,,,,,,,,,,,,,,,,,,45.356651,-1.06178,11 Rue de la Mairie 33930 Vendays-Montalivet,0.76,housenumber,ADRNIVX_0000000275905602,11,Rue de la Mairie,,33930,Vendays-Montalivet,"33, Gironde, Aquitaine",33540
1548,Lestiac-sur-Garonne,20,,556209814,,maisondesassociations35@orange.fr,,BDP Lestiac-sur-Garonne,,MAIRIE,,B,,,33550,LESTIAC SUR GARONNE,33241,17,MANDILE Isabelle,Oui,0,0,,0,,,,,,,,,,,, 15h00, 17h00,,,,,,,,,,,,,,,,,44.695424,-0.374593,Marsan 33550 Lestiac-sur-Garonne,0.71,locality,33241_B035_edbf50,,Marsan,,33550,Lestiac-sur-Garonne,"33, Gironde, Aquitaine",33241
2022,Macau,0,,557889475,557880755,bibliothèque@ville-macau.fr,,BDP Macau,,MAIRIE,1,,PLACE DE LA RÉPUBLIQUE,,33460,MACAU,33262,6,TALOU Valérie,Oui,0,0,,0,,,,,,,,,,,,,,,,,,,,,,,,,,,,,,45.009048,-0.611902,Place de la République 33460 Macau,0.86,street,33262_0720_0cd41f,,Place de la République,,33460,Macau,"33, Gironde, Aquitaine",33262
1158,Bazas,5,,556651246,556650666,mediatheque.bazas@orange.fr,http://www.mediathequebazas.net,BDP Bazas,,,17,,ESPLANADE SAINT-SAUVEUR,,33430,BAZAS,33036,4,,Oui,1,3,,3,Accès aux personnes à mobilité réduite,,,,,,, 15h00, 18h30,09h30, 12h00, 14h00, 17h30,,,,,09h30, 12h00, 15h00, 17h30,09h30, 12h00,,,,,,,44.4314,-0.215281,17 Allée Saint-Sauveur 33430 Bazas,0.62,housenumber,ADRNIVX_0000000276615206,17,Allée Saint-Sauveur,,33430,Bazas,"33, Gironde, Aquitaine",33036
1726,Léognan,12,,557960133,557960131,bibliotheque@mairie-leognan.fr,http://www.bibliothequemunicipale-leognan.fr,BDP Léognan,,,,,RUE DU 19 MARS 1962,,33850,LÉOGNAN,33238,27,,Oui,1,1,,0,Accès aux personnes à mobilité réduite,,,,,,, 16h00, 18h00,10h30, 12h30, 15h00, 19h00,,, 16h00, 18h00,,, 16h00, 19h00,10h30, 12h30, 15h00, 18h00,,,,,44.730477,-0.599784,Rue du 19 Mars 1962 33850 Léognan,0.91,street,33238_0178_4155f8,,Rue du 19 Mars 1962,,33850,Léognan,"33, Gironde, Aquitaine",33238
1602,Virelade,26,,556271770,556272647,marion.roche@cc-podensac.fr,,BDP Virelade,,CDC PODENSAC-PRIMEVER ,12,,RUE DU MARÉCHAL LECLERC DE HAUTECLOCQUE,,33720,PODENSAC,33552,36,BRAU Rolande,Oui,0,0,,0,Accès aux personnes à mobilité réduite,,, 16h30, 18h00,,,,,,,,,,,,,,,,,,,,,,,,,,,,,,,,,,,,,
2053,Noaillan,0,,,,,,BDP Noaillan,,,,,,,,,,50,,Oui,0,0,,0,,,,,,,,,,,,,,,,,,,,,,,,,,,,,,,,,,,,,,,,,,
1690,Cézac,9,,557681968,557685440,bibli.cezac@wanadoo.fr,,BDP Cézac,,,,,LE BOURG,,33620,CÉZAC,33123,44,,Oui,1,0,,0,Accès aux personnes à mobilité réduite,,, 13h30, 16h30,09h00, 12h00, 13h30, 16h30,09h30, 12h00, 13h30, 17h00,09h00, 12h00, 13h30, 16h30,09h00, 12h00, 13h30, 16h30,,,,,,,,,45.09075,-0.420074,Le Bourg 33620 Cézac,0.91,locality,33123_B016_68e96c,,Le Bourg,,33620,Cézac,"33, Gironde, Aquitaine",33123
1503,Camps-sur-l'Isle,25,,557696335,557696579,mairiecamps-sur-isle@wanadoo.fr,,BDP Camps-sur-l'Isle,,,89,,RUE DE LA RÉPUBLIQUE,,33660,CAMPS SUR L ISLE,33088,22,,Oui,1,0,,0,,,,,,,,,,,,,,,,,,,,,,,,,,,,,,45.015305,-0.03071,89 Rue de la République 33660 Camps-sur-l'Isle,0.91,housenumber,ADRNIVX_0000000276039301,89,Rue de la République,,33660,Camps-sur-l'Isle,"33, Gironde, Aquitaine",33088
1515,Gours,25,,557497440,557497326,mairiedegours@wanadoo.fr,,BDP Gours,,MAIRIE,14,,LE BOURG,,33660,GOURS,33191,31,CHAUSSADAS Jocelyne,Oui,0,0,,0,Accès aux personnes à mobilité réduite,,,,,,,,,,,,,,,,,,,,,,,,,,,,,44.992326,0.019471,14 Le Bourg 33660 Gours,0.91,housenumber,ADRNIVX_0000000276050890,14,Le Bourg,,33660,Gours,"33, Gironde, Aquitaine",33191
1704,Pugnac,15,,557689881,557689272,bibliothequepugnac@orange.fr,,BDP Pugnac,,,19,,RUE DE L'ÉGLISE,,33710,PUGNAC,33341,15,,Oui,0,0,,0,,,,,,,,,,,, 15h00, 17h30,10h00, 12h00, 14h00, 17h00,,, 14h00, 17h00,,,,,,,,,45.083994,-0.496605,Rue de l'Église 33710 Pugnac,0.82,street,33341_XXXX_ce2c27,,Rue de l'Église,,33710,Pugnac,"33, Gironde, Aquitaine",33341
1710,Génissac,21,,557244718,557244290,mairie.genissac@wanadoo.fr,,BDP Génissac,,,,,BOURG,,33420,GÉNISSAC,33185,16,,Oui,1,1,,0,,,, 17h00, 18h30,,,,,,, 14h00, 17h00,,, 17h00, 18h30,,,,,,, 15h00, 17h00,,,,,44.859729,-0.257305,Le Bourg 33420 Génissac,0.79,locality,33185_B024_a467d4,,Le Bourg,,33420,Génissac,"33, Gironde, Aquitaine",33185
2015,Budos,20,,556625159,556624331,marion.roche@cc-podensac.fr,,BDP Budos,,CDC PODENSAC-PRIMEVER ,12,,RUE DU MARÉCHAL LECLERC DE HAUTECLOCQUE,,33720,PODENSAC,33076,36,REDOULEZ Nadine,Oui,0,0,,0,,,, 17h00, 18h00,,,,,,,,,,,,,,,,,10h00, 12h00,,,,,,,,,,,,,,,,,,,
1696,Villegouge,21,,557844208,557844964,mairie.villegouge@wanadoo.fr,,BDP Villegouge,,,5,,PLACE DE LA MAIRIE,,33141,VILLEGOUGE,33548,24,,Oui,0,0,,0,,,,,,,, 15h00, 16h30,,, 14h30, 17h00,09h00, 12h00,, 03h00,,, 15h00, 16h30,10h00, 12h00,,,,,,,44.95607,-0.294312,La Métairie de Plain Point 33141 Villegouge,0.57,locality,33548_XXXX_d65cac,,La Métairie de Plain Point,,33141,Villegouge,"33, Gironde, Aquitaine",33548
1366,Gensac,2,,557474919,557474663,mediatheque.gensac@wanadoo.fr,http://www.gensac.free.fr,BDP Gensac,,,4,,RUE FROMAGÈRE,,33890,GENSAC,33186,37,,Oui,1,2,,2,Accès aux personnes à mobilité réduite,,,,,,, 14h00, 18h00,10h00, 12h00, 14h00, 18h00,,,,,09h00, 12h00, 14h00, 18h00,09h30, 12h30,,,,,,,44.806487,0.072313,4 Rue Fromagère 33890 Gensac,0.91,housenumber,ADRNIVX_0000000276383972,4,Rue Fromagère,,33890,Gensac,"33, Gironde, Aquitaine",33186
1698,Samonac,25,,557684351,557683839,mairie.samonac@wanadoo.fr,,BDP Samonac,,MAIRIE,,B,,,33710,SAMONAC,33500,15,AUDOUIN Jean-Paul,Non,0,0,,0,Accès aux personnes à mobilité réduite,,, 14h00, 17h00,,, 14h00, 17h00,,,,,,, 14h00, 17h00,,, 14h00, 17h00,09h00, 12h00,,,,,,,45.080698,-0.569836,Birol 33710 Samonac,0.62,locality,33500_B010_489b0a,,Birol,,33710,Samonac,"33, Gironde, Aquitaine",33500
1185,Saint-Laurent-du-Bois,25,,606474429,556762033,mairie.stlaurentdubois@orange.fr,,BDP Saint-Laurent-du-Bois,,,,,PLACE DE LA MAIRIE,,33540,SAINT LAURENT DU BOIS,33427,43,,Oui,0,0,,0,Accès aux personnes à mobilité réduite,,,,,,,,,,,,,,,,,13h00, 13h45, 16h30, 18h45,,,,,,,,,44.639892,-0.13157,La Malouse 33540 Saint-Laurent-du-Bois,0.58,locality,33427_B074_0fa6ab,,La Malouse,,33540,Saint-Laurent-du-Bois,"33, Gironde, Aquitaine",33427
1179,Podensac,16,,556271754,556270531,marion.roche@cc-podensac.fr,,BDP Podensac,,CDC PODENSAC-PRIMEVER ,12,,RUE DU MARÉCHAL LECLERC DE HAUTECLOCQUE,,33720,PODENSAC,33327,36,BAUDIS Claude,Oui,0,0,,0,Accès aux personnes à mobilité réduite,,,,,,,,,,, 15h00, 18h00,,,,,,, 16h00, 19h00,,,,,11h00, 12h30,,,44.649511,-0.358722,12 Rue du Maréchal Leclerc 33720 Podensac,0.66,housenumber,ADRNIVX_0000000276529772,12,Rue du Maréchal Leclerc,,33720,Podensac,"33, Gironde, Aquitaine",33327
1777,Gaillan-en-Médoc,15,,556410668,556411021,pointlecture.gaillan@orange.fr,,BDP Gaillan-en-Médoc,,,31,,RUE DU BOURG,,33340,GAILLAN EN MÉDOC,33177,29,,Oui,1,1,,0,Accès aux personnes à mobilité réduite,,,,,,,,,,,,,,,,,,,,,,,,,,,,,45.32555,-0.954837,31 Rue du Bourg 33340 Gaillan-en-Médoc,0.91,housenumber,ADRNIVX_0000000275908843,31,Rue du Bourg,,33340,Gaillan-en-Médoc,"33, Gironde, Aquitaine",33177
1634,Saint-Estèphe,15,,556593355,556593918,bibliotheque@mairie-saint-estephe.fr,,BDP Saint-Estèphe,,,33,,ROUTE DE LA MAIRIE,,33180,SAINT ESTÈPHE,33395,33,,Oui,0,0,,0,Accès aux personnes à mobilité réduite,,, 15h00, 18h30,,, 15h00, 18h30,,, 13h30, 16h30,,, 15h00, 18h30,,, 15h00, 18h30,,,,,,,,,45.259554,-0.772191,33 Rue de la Mairie 33180 Saint-Estèphe,0.78,housenumber,ADRNIVX_0000000275922237,33,Rue de la Mairie,,33180,Saint-Estèphe,"33, Gironde, Aquitaine",33395
2027,Nérigean,20,,557245270,557558955,bibliothequenerigean@gmail.com,,BDP Nérigean,,,43,,ROUTE DE LA SOULOIRE,,33750,NERIGEAN,,,,Oui,1,1,,0,,,,,,,,,,,,,,,,,,,,,,,,,,,,,,44.844225,-0.302314,Route de la Souloire 33750 Nérigean,0.84,street,33303_0175_061dd3,,Route de la Souloire,,33750,Nérigean,"33, Gironde, Aquitaine",33303
1653,Le Verdon-sur-Mer,15,,556096321,556096475,biblio.leverdon@gmail.com,,BDP Le Verdon-sur-Mer,,,,,CENTRE CULTUREL JEAN PARÈS,,33123,LE VERDON SUR MER,33544,46,,Oui,0,0,,0,,,,,,,,,,,,,,,,,,,,,,,,,,,,,,45.544154,-1.06458,Rue Jean Pares 33123 Le Verdon-sur-Mer,0.63,street,33544_0090_2a3580,,Rue Jean Pares,,33123,Le Verdon-sur-Mer,"33, Gironde, Aquitaine",33544
1656,Saint-Laurent-Médoc,16,,556594096,556733271,bibliotheque.slm@wanadoo.fr,,BDP Saint-Laurent-Médoc,,,7,,RUE DU GÉNÉRAL DE GAULLE,,33112,SAINT LAURENT MÉDOC,33424,42,,Oui,1,2,,0,Accès aux personnes à mobilité réduite,,,,,,,,,,,,,,,,,,,,,,,,,,,,,45.152364,-0.82315,Rue du Général de Gaulle 33112 Saint-Laurent-Médoc,0.89,street,33424_0200_03c52a,,Rue du Général de Gaulle,,33112,Saint-Laurent-Médoc,"33, Gironde, Aquitaine",33424
1760,Lamarque,14,,556589012,556589751,mairie-de-lamarque@wanadoo.fr,,BDP Lamarque,,,28,,RUE PRINCIPALE,,33460,LAMARQUE,33220,20,,Oui,0,0,,0,Accès aux personnes à mobilité réduite,,, 16h00, 17h00,,, 16h00, 17h00,,, 16h00, 18h00,,,,,,, 16h30, 18h00,10h00, 12h00,,,,,,,45.096051,-0.717801,28 Rue Principale 33460 Lamarque,0.91,housenumber,ADRNIVX_0000000275967986,28,Rue Principale,,33460,Lamarque,"33, Gironde, Aquitaine",33220
1356,Verdelais,20,,556620206,556767001,mairie-de-verdelais@wanadoo.fr,,BDP Verdelais,,,3,,LES ALLÉES,,33490,VERDELAIS,33543,43,,Oui,0,0,,0,,,,,,,,,,,,,,,, 14h00, 18h00,,,,,,,,,,,,,44.588275,-0.249777,3 Place des Allées 33490 Verdelais,0.65,housenumber,ADRNIVX_0000000276561587,3,Place des Allées,,33490,Verdelais,"33, Gironde, Aquitaine",33543
2025,Saint-Pierre-d'Aurillac,21,,556639721,,lapetitemediathequedestpierre@gmail.com,,BDP Saint-Pierre-d'Aurillac,,,4,,RUE DES COOPÉRATIVES,,33490,SAINT PIERRE D AURILLAC,33463,43,,Oui,0,0,,0,,,,,,,,,,,,,,,,,,,,,,,,,,,,,,44.574509,-0.190006,Rue des Coopératives 33490 Saint-Pierre-d'Aurillac,0.88,street,33463_0009_816dd1,,Rue des Coopératives,,33490,Saint-Pierre-d'Aurillac,"33, Gironde, Aquitaine",33463
2081,Branne,0,,,,,,BDP Branne,,,,,,,,,,,,Oui,0,0,0,0,,,,,,,,,,,,,,,,,,,,,,,,,,,,,,,,,,,,,,,,,,
537,Uzeste,19,,556253311,556258573,mairie-uzeste@wanadoo.fr,,BDP Uzeste,,,11,,PLACE DE L'ÉGLISE,,33730,UZESTE,33537,50,,Oui,0,0,,0,,,,,,,,,,,, 16h00, 18h30,,,,,,, 16h00, 18h30,,,,,,,,,44.441559,-0.323468,Place de l'Église 33730 Uzeste,0.82,street,33537_XXXX_cebbfc,,Place de l'Église,,33730,Uzeste,"33, Gironde, Aquitaine",33537
1173,Gironde-sur-Dropt,9,,556711411,556711105,cducourneau@girondesurdropt.com,,BDP Gironde-sur-Dropt,,,,,Maison des médias,,33190,GIRONDE SUR DROPT,33187,38,,Oui,1,11,,11,Accès aux personnes à mobilité réduite,,,,,,, 14h00, 17h30,09h00, 12h00, 14h00, 18h30,,, 14h00, 18h00,10h00, 12h00, 14h00, 19h00,,, 14h00, 19h00,,,,,44.601108,-0.076278,Mellon 33190 Gironde-sur-Dropt,0.55,locality,33187_B052_460123,,Mellon,,33190,Gironde-sur-Dropt,"33, Gironde, Aquitaine",33187
1757,Créon,10,,557345445,557345446,bibliotheque.creon@orange.fr,bibliothequecreon.opac3d.fr,BDP Créon,,,1,,RUE MONTESQUIEU,,33670,CRÉON,33140,23,,Oui,1,0,,0,,,,,,,, 16h00, 18h30,10h00, 12h00, 14h30, 18h30,,,,,,, 16h00, 18h30,10h00, 12h00,,,10h00, 12h00,,,44.774021,-0.349159,Rue Montesquieu 33670 Créon,0.85,street,33140_0652_372cbd,,Rue Montesquieu,,33670,Créon,"33, Gironde, Aquitaine",33140
1745,Saint-André-de-Cubzac,6,,557436739,557451029,mediatheque@saintandredecubzac.fr,,BDP Saint-André-de-Cubzac,,,25,B,RUE DANTAGNAN,,33240,SAINT ANDRÉ DE CUBZAC,33366,39,,Oui,1,1,,0,,,,,,,, 15h00, 18h00,09h30, 12h30, 15h00, 18h00,,, 15h00, 18h00,,, 15h00, 18h00,09h30, 12h30, 15h00, 18h00,,,,,44.994475,-0.445399,25 BIS Rue Émile Dantagnan 33240 Saint-André-de-Cubzac,0.76,housenumber,ADRNIVX_0000000276047916,25 BIS,Rue Émile Dantagnan,,33240,Saint-André-de-Cubzac,"33, Gironde, Aquitaine",33366
1664,Castillon-la-Bataille,4,,557564030,557560659,media.clb@orange.fr,http://castillon.sezhame.decalog.net,BDP Castillon-la-Bataille,,,4,,ESPLANADE MARCEL JOUANNO,,33350,CASTILLON LA BATAILLE,33108,21,,Oui,1,7,,7,Accès aux personnes à mobilité réduite,09h00, 12h00,,,,, 15h00, 18h00,09h00, 12h00, 13h00, 18h00,,,,,,, 15h00, 18h00,09h00, 12h00,,,,,,,44.853319,-0.04554,Esplanade Marcel Jouanno 33350 Castillon-la-Bataille,0.89,street,33108_0142_322c00,,Esplanade Marcel Jouanno,,33350,Castillon-la-Bataille,"33, Gironde, Aquitaine",33108
2014,Floirac,32,,556869928,557444186,mediatheque@ville-floirac33.fr,http://www.ville-floirac33.fr/Culture/Culture,BDP Floirac,,,,,RUE VOLTAIRE,,33270,FLOIRAC,33167,58,,Non,0,0,,0,,,,,,,,,,,,,,,,,,,,,,,,,,,,,,44.845524,-0.509015,Rue Voltaire 33270 Floirac,0.92,street,33167_1475_25f4c6,,Rue Voltaire,,33270,Floirac,"33, Gironde, Aquitaine",33167
1700,Cadillac-en-Fronsadais,20,,557581365,,cadibibio@gmail.fr,,BDP Cadillac-en-Fronsadais,,,,,RUE DU 19 MARS 1962,,33240,CADILLAC EN FRONSADAIS,33082,24,,Oui,0,0,,0,,09h00, 10h30,,,,, 14h00, 15h00,,,,,09h00, 10h30,,,11h00, 12h00, 15h00, 16h00,10h30, 12h00,,,,,,,44.966761,-0.374246,Rue du 19 Mars 1962 33240 Cadillac-en-Fronsadais,0.91,street,33082_0015_94fd61,,Rue du 19 Mars 1962,,33240,Cadillac-en-Fronsadais,"33, Gironde, Aquitaine",33082
1380,Sainte-Terre,15,,557471593,557471614,bibliosainteterre@wanadoo.fr,,BDP Sainte-Terre,,,12,,AVENUE CHARLES DE GAULLE,,33350,SAINTE TERRE,33485,21,,Oui,1,3,,3,Accès aux personnes à mobilité réduite,,,,,,, 16h00, 17h00,,, 14h00, 18h00,,, 16h00, 17h00,,, 16h00, 17h00,10h00, 12h00,,,,,,,44.818604,-0.136321,Impasse Charles de Gaulle 33350 Sainte-Terre,0.66,street,33485_XXXX_e43b84,,Impasse Charles de Gaulle,,33350,Sainte-Terre,"33, Gironde, Aquitaine",33485
1676,Lège-Cap-Ferret,6,,556608178,556036956,mediatheque@legecapferret.fr,http://bmlegecapferret.dnsalias.net/,BDP Lège-Cap-Ferret,,,,,PETIT PIQUEY,,33950,LÈGE CAP FERRET,33236,2,,Oui,1,6,,0,Accès aux personnes à mobilité réduite,,,,,10h00, 13h00, 15h00, 18h00,10h00, 13h00, 13h00, 18h00,10h00, 13h00,,,10h00, 13h00, 15h00, 18h00,10h00, 13h00, 13h00, 17h00,,,,,44.715229,-1.21075,Allée de Grand Piquey 33950 Lège-Cap-Ferret,0.55,street,33236_0777_859568,,Allée de Grand Piquey,,33950,Lège-Cap-Ferret,"33, Gironde, Aquitaine",33236
1713,Quinsac,15,,556208266,,bibliothequequinsac33@gmail.com,,BDP Quinsac,,,,,RUE ANDRÉ BERRY,,33360,QUINSAC,33349,23,,Oui,0,0,,0,,,,,,,, 16h30, 18h30,10h00, 12h00,,,,,,,,,,,10h00, 12h00,,,,,,,44.755536,-0.48042,Bernet 33360 Quinsac,0.43,locality,33349_B007_6a27be,,Bernet,,33360,Quinsac,"33, Gironde, Aquitaine",33349
1723,Saint-Germain-du-Puch,10,,557245119,557240223,bibliotheque.saint-germain-du-puch@orange.fr,,BDP Saint-Germain-du-Puch,,,5,,RUE DE L'ÉGLISE,,33750,SAINT GERMAIN DU PUCH,33413,16,,Oui,1,3,,3,Accès aux personnes à mobilité réduite,11h00, 12h00,,,,, 16h30, 18h00,,, 14h00, 16h00,,,,,,,,,10h30, 12h30,,,,,,,44.856793,-0.321816,Rue de l'Église 33750 Saint-Germain-du-Puch,0.87,street,33413_XXXX_5d55d0,,Rue de l'Église,,33750,Saint-Germain-du-Puch,"33, Gironde, Aquitaine",33413
1666,Langoiran,10,,556676685,556676685,bibliotheque@langoiran.fr,http://bibliothequelang.canalblog.com/,BDP Langoiran,,,3,,AVENUE DU GÉNÉRAL DE GAULLE,,33550,LANGOIRAN,33226,17,,Oui,1,1,,1,,,,,,,, 15h00, 18h00,,, 15h00, 18h00,09h30, 12h00, 15h00, 18h00,,, 15h00, 18h00,,,,,,,,,44.707136,-0.401443,3 Avenue du Général de Gaulle 33550 Langoiran,0.91,housenumber,ADRNIVX_0000000276476202,3,Avenue du Général de Gaulle,,33550,Langoiran,"33, Gironde, Aquitaine",33226
1678,Saint-Savin,10,,557589509,557589509,saint-savin.bibliotheque@orange.fr,,BDP Saint-Savin,,,20,,RUE JACQUES VERGERON,,33920,SAINT SAVIN DE BLAYE,33473,44,,Oui,1,1,,0,,,,,,,,,,,,,,,,,,,,,,,,,,,,,,45.138583,-0.445776,20 Rue Jacques Vergeron 33920 Saint-Savin,0.76,housenumber,ADRNIVX_0000000275954204,20,Rue Jacques Vergeron,,33920,Saint-Savin,"33, Gironde, Aquitaine",33473
1776,Pondaurat,25,,556610738,556710871,mairie.pondaurat@wanadoo.fr,,BDP Pondaurat,,MAIRIE,16,,LE BOURG,,33190,PONDAURAT,33331,3,BENTEJAC Jacqueline,Oui,0,0,,0,,,,,,,, 17h00, 18h00,,,,,,,,,,,,,,,,,,,,,44.538038,-0.086821,16 Le Bourg 33190 Pondaurat,0.91,housenumber,ADRNIVX_0000000276594748,16,Le Bourg,,33190,Pondaurat,"33, Gironde, Aquitaine",33331
2005,Le Bouscat,32,,557222664,,bibliotheque@mairie-le-bouscat.fr,,BDP Le Bouscat,,,17,,PLACE ROOSEVELT,,33110,LE BOUSCAT,33069,54,,Non,0,0,,0,,,,,,,,,,,,,,,,,,,,,,,,,,,,,,44.866044,-0.599139,17 Place Président Roosevelt 33110 Le Bouscat,0.72,housenumber,ADRNIVX_0000000276185483,17,Place Président Roosevelt,,33110,Le Bouscat,"33, Gironde, Aquitaine",33069
1485,Cubzac-les-Ponts,21,,557430211,557439247,mairie.cubzac@wanadoo.fr,,BDP Cubzac-les-Ponts,,MAIRIE,49,,AVENUE DE PARIS,,33240,CUBZAC LES PONTS,33143,39,ESTEBAN SANZ Monique,Oui,0,0,,0,Accès aux personnes à mobilité réduite,,,,,,,,,,,,,,,,,,,,,,,,,,,,,44.970047,-0.454332,49 Avenue de Paris 33240 Cubzac-les-Ponts,0.91,housenumber,ADRNIVX_0000000276063229,49,Avenue de Paris,,33240,Cubzac-les-Ponts,"33, Gironde, Aquitaine",33143
1101,Mombrier,19,,557643936,557642020,bibliothequemombrier@laposte.fr,,BDP Mombrier,,MAIRIE,4,,LE BOURG,,33710,MOMBRIER,,15,LANDREAU Noëlle,Oui,0,0,,0,,,,,,,,,,,,,,,,,,,,,,,,,,,,,,45.078074,-0.553882,4 Le Bourg 33710 Mombrier,0.91,housenumber,ADRNIVX_0000000275982007,4,Le Bourg,,33710,Mombrier,"33, Gironde, Aquitaine",33285
1772,Le Haillan,6,,557931131,557931112,service.bibliotheque@ville-lehaillan.fr,,BDP Le Haillan,,,30,,RUE DE LOS HÉROS,,33185,LE HAILLAN,33200,63,,Oui,1,6,,0,Accès aux personnes à mobilité réduite,,,,,,,,,,,,,,,,,,,,,,,,,,,,,44.874439,-0.676265,30 Rue de Los Héros 33185 Le Haillan,0.91,housenumber,ADRNIVX_0000000276167032,30,Rue de Los Héros,,33185,Le Haillan,"33, Gironde, Aquitaine",33200
1677,Parempuyre,17,,556954886,556955610,bibliotheque@mairie-parempuyre.fr,,BDP Parempuyre,,,47,,RUE DU GÉNÉRAL DE GAULLE,,33290,PAREMPUYRE,33312,6,,Oui,1,1,,0,Accès aux personnes à mobilité réduite,,, 14h00, 18h00,09h00, 12h00, 14h00, 18h00,10h00, 12h00, 14h00, 18h00,,, 14h00, 18h00,09h00, 12h00, 14h00, 18h00,10h00, 12h30,,,,,,,44.949553,-0.604034,47 Rue du Général de Gaulle 33290 Parempuyre,0.91,housenumber,ADRNIVX_0000000276071306,47,Rue du Général de Gaulle,,33290,Parempuyre,"33, Gironde, Aquitaine",33312
1498,Balizac,19,,556253483,556253784,callenkarine@orange.fr,,BDP Balizac,,,,,LE BOURG,,33730,BALIZAC,33026,45,,Oui,0,0,,0,,,,,,,,,,,,,,,,,,,,,,10h00, 12h00,,,,,,,44.487872,-0.445621,Le Bourg 33730 Balizac,0.91,locality,33026_B032_bf316e,,Le Bourg,,33730,Balizac,"33, Gironde, Aquitaine",33026
1978,Périssac,20,,557743103,557744317,biblio.mdp@orange.fr,,BDP Périssac,,,9,,AVENUE DES ÉCOLES,,33240,PÉRISSAC,33317,24,,Oui,1,1,,0,Accès aux personnes à mobilité réduite,,,,,,,,,09h00, 12h00,,,,,,,,,,,10h00, 12h00,,,,,,,45.020612,-0.321654,9 Avenue des Écoles 33240 Périssac,0.91,housenumber,ADRNIVX_0000000276028282,9,Avenue des Écoles,,33240,Périssac,"33, Gironde, Aquitaine",33317
1365,Flaujagues,26,,557400833,557402935,mairie.flaujagues@orange.fr,,BDP Flaujagues,,,,,LE BOURG SUD,,33350,FLAUJAGUES,33168,37,,Oui,1,0,,0,,,,,,,,,,,,,,,,,,,,,,09h00, 12h00,,,,,,,44.827843,0.036592,Le Bourg-Sud 33350 Flaujagues,0.91,locality,33168_B005_691204,,Le Bourg-Sud,,33350,Flaujagues,"33, Gironde, Aquitaine",33168
1534,Laroque,25,,556626011,556626011,mairie-laroque@wanadoo.fr,,BDP Laroque,,MAIRIE,,B,,,33410,LAROQUE,33231,17,AUGEY Catherine,Oui,0,0,,0,,,,,,08h00, 12h30,,,,, 14h00, 18h00,08h00, 12h30,,,08h00, 12h30,,,,,,,,,,,44.659342,-0.31536,Trajet 33410 Laroque,0.59,locality,33231_B057_5b69ef,,Trajet,,33410,Laroque,"33, Gironde, Aquitaine",33231
229,Lanton,5,,556038610,,s.tillier@ville-lanton.fr,,BDP Lanton,,,15,,AVENUE DE LA LIBÉRATION,,33138,LANTON,33229,2,,Oui,0,1,,0,Accès aux personnes à mobilité réduite,,,,,,, 15h00, 18h00,,, 10h00, 18h00,,,,,,, 10h00, 18h00,,, 10h00, 13h00,,,,,44.703903,-1.03923,Avenue de la Libération 33138 Lanton,0.84,street,33229_0422_7b4ed4,,Avenue de la Libération,,33138,Lanton,"33, Gironde, Aquitaine",33229
1702,Bourg,10,,557682026,557683984,biblio-de-bourg@orange.fr,,BDP Bourg,,,,,PLACE JEANTET,,33710,BOURG,33067,15,,Oui,0,1,,0,Accès aux personnes à mobilité réduite,,,,,,, 14h00, 16h00,,, 15h00, 19h00,,, 14h30, 18h00,,,,,,,,,,,,,45.040714,-0.555702,Place Jeantet 33710 Bourg,0.92,street,33067_0170_fc6dcb,,Place Jeantet,,33710,Bourg,"33, Gironde, Aquitaine",33067
1597,Saint-Vivien-de-Médoc,21,,557750462,,bibliothequestvivien@orange.fr,http://bibliothequestvivien.over-blog.com,BDP Saint-Vivien-de-Médoc,,,,,RUE PIERRE LASALLE,,33590,SAINT VIVIEN DE MÉDOC,33490,46,,Oui,0,0,,0,Accès aux personnes à mobilité réduite,,,,,,,,,10h30, 12h00, 12h30, 15h30,,, 16h00, 18h00,,,,,10h30, 12h00, 15h00, 17h00,,,,,45.427063,-1.034065,Cours Pierre Lassalle 33590 Saint-Vivien-de-Médoc,0.76,street,33490_0034_fee960,,Cours Pierre Lassalle,,33590,Saint-Vivien-de-Médoc,"33, Gironde, Aquitaine",33490
1102,Ambès,4,,556770269,556770392,biblio@mairie-ambes.fr,http://ambes.c3rb.org,BDP Ambès,,,5,,AVENUE GUSTAVE COUAILLAC,,33810,AMBÈS,33004,60,,Oui,1,9,,9,Accès aux personnes à mobilité réduite,,,,,10h00, 12h00, 16h30, 18h30,10h00, 12h00, 14h00, 18h30,,, 16h30, 18h30,,, 16h30, 18h30,09h30, 12h30,,,,,,,45.011526,-0.532692,5 Avenue du Docteur Gustave Couaillac 33810 Ambès,0.7,housenumber,ADRNIVX_0000000276030717,5,Avenue du Docteur Gustave Couaillac,,33810,Ambès,"33, Gironde, Aquitaine",33004
1925,Pomerol,20,,557511294,557518863,mairie.pomerol@wanadoo.fr,,BDP Pomerol,,MAIRIE,,B,,,33500,POMEROL,33328,30,DESMARTY Claude,Non,0,0,,0,Accès aux personnes à mobilité réduite,,, 15h30, 18h30,,,,,,,,,,,,,,, 15h30, 18h30,,,,,,,,,44.931456,-0.186501,Le Gazin 33500 Pomerol,0.54,locality,33328_B043_7b528d,,Le Gazin,,33500,Pomerol,"33, Gironde, Aquitaine",33328
2010,Bègles,32,,556495481,556492251,bibliotheque@mairie-begles.fr,,BDP Bègles,,,58,,AVENUE MARÉCHAL DE LATTRE DE TASSIGNY,,33130,BÈGLES,33039,52,,Non,0,0,,0,Accès aux personnes à mobilité réduite,,,,,,,,,,,,,,,,,,,,,,,,,,,,,44.804661,-0.543573,58 Avenue Maréchal de Lattre de Tassigny 33130 Bègles,0.93,housenumber,ADRNIVX_0000000324889475,58,Avenue Maréchal de Lattre de Tassigny,,33130,Bègles,"33, Gironde, Aquitaine",33039
1190,Saint-Michel-de-Lapujade,19,,556617618,,,,BDP Saint-Michel-de-Lapujade,,,,,LORETTE,,33190,SAINT MICHEL DE LAPUJADE,33453,38,,Non,0,0,,0,Accès aux personnes à mobilité réduite,,,,,,,,,,,,,,,,,,,,,,,,,,,,,44.588417,0.099656,Lorette 33190 Saint-Michel-de-Lapujade,0.91,locality,33453_B020_3ebeb1,,Lorette,,33190,Saint-Michel-de-Lapujade,"33, Gironde, Aquitaine",33453
1756,Capian,26,,556721012,556721247,mairie.capian@wanadoo.fr,,BDP Capian,,,,,PLACE DE LA MAIRIE,,33550,CAPIAN,33093,17,,Oui,0,0,,0,,,,,,,,,,,,,,,,,,,,,,,, 17h00, 18h00,,,,,44.720201,-0.333203,Lachaise 33550 Capian,0.43,locality,33093_B066_bab7c7,,Lachaise,,33550,Capian,"33, Gironde, Aquitaine",33093
1376,Saint-Pey-de-Castets,20,,557405216,557405216,sirp.saint-pey-de-castets@wanadoo.fr,,BDP Saint-Pey-de-Castets,,,3,,AVENUE DE LA MAIRIE,,33350,SAINT PEY DE CASTETS,33460,37,,Oui,0,0,,0,,,,,,,,,,,,,,,,,,,,,,,,,,,,,,44.813912,-0.063729,3 Avenue de la Mairie 33350 Saint-Pey-de-Castets,0.91,housenumber,ADRNIVX_0000000276367278,3,Avenue de la Mairie,,33350,Saint-Pey-de-Castets,"33, Gironde, Aquitaine",33460
1749,Ludon-Médoc,16,,557884409,557885480,bibliotheque.ludon@orange.fr,,BDP Ludon-Médoc,,,1,,RUE ANDRÉ HERTIG,,33290,LUDON MÉDOC,33256,6,,Oui,0,0,,0,Accès aux personnes à mobilité réduite,,,,,,,,,,,,,,,,,,,,,,,,,,,,,44.982927,-0.609141,1 Avenue André Hertig 33290 Ludon-Médoc,0.75,housenumber,ADRNIVX_0000000276053270,1,Avenue André Hertig,,33290,Ludon-Médoc,"33, Gironde, Aquitaine",33256
1025,Marcheprime,16,,557718021,557711906,bibliotheque@ville-marcheprime.fr,,BDP Marcheprime,,,4,,AVENUE DE LA RÉPUBLIQUE,,33380,MARCHEPRIME,33555,2,,Oui,1,0,,0,Accès aux personnes à mobilité réduite,,, 16h00, 18h00,,,,,09h30, 12h30, 13h00, 18h00,,,,,,,,,09h30, 12h30, 13h00, 18h00,,,,,44.691978,-0.85448,4 Avenue de la République 33380 Marcheprime,0.91,housenumber,ADRNIVX_0000000276476597,4,Avenue de la République,,33380,Marcheprime,"33, Gironde, Aquitaine",33555
1729,Hostens,21,,556887490,556885794,mairie@hostens.fr,,BDP Hostens,,,1,,ROUTE DE MONT DE MARSAN,,33125,HOSTENS,33202,45,,Oui,0,0,,0,Accès aux personnes à mobilité réduite,10h00, 12h00,,,,,,,,, 16h00, 18h00,,,,,,,,,,, 15h00, 17h00,,,,,44.487762,-0.638959,Route de Mont de Marsan 33125 Hostens,0.86,street,33202_0018_5f9852,,Route de Mont de Marsan,,33125,Hostens,"33, Gironde, Aquitaine",33202
1540,Lussac,15,,964480981,557745390,marie-line.calviac@orange.fr,,BDP Lussac,,,3,,PLACE DE LA RÉPUBLIQUE,,33570,LUSSAC,33261,31,,Oui,0,0,,0,,,,,,,, 13h30, 18h00,,,,,09h15, 12h00, 13h30, 16h45,09h15, 12h00, 13h30, 16h45,10h00, 12h30,,,,,,,44.949083,-0.096217,3 Place de la République 33570 Lussac,0.92,housenumber,ADRNIVX_0000000276081769,3,Place de la République,,33570,Lussac,"33, Gironde, Aquitaine",33261
1159,Bernos-Beaulac,21,,556254476,556254644,mairie.bernos.beaulac@wanadoo.fr,,BDP Bernos-Beaulac,,,27,,ROUTE DE BERNOS,,33430,BERNOS BEAULAC,33046,4,,Oui,0,0,,0,,,,,,,, 16h00, 18h00,,, 16h00, 18h00,,,,,,,,,,,,,,,,,44.375793,-0.24973,27 Route de Bernos 33430 Bernos-Beaulac,0.91,housenumber,ADRNIVX_0000000276620462,27,Route de Bernos,,33430,Bernos-Beaulac,"33, Gironde, Aquitaine",33046
1195,Savignac,20,,556654086,,savignac3@wanadoo.fr,,BDP Savignac,,,,,BOURG,,33124,SAVIGNAC,33508,3,,Oui,0,0,,0,Accès aux personnes à mobiblité réduite,,,,,,,,,,,,,,,,,,,,,,, 18h00, 19h00,,,,,44.522893,-0.108642,Le Bourg 33124 Savignac,0.79,locality,33508_B009_22ebe7,,Le Bourg,,33124,Savignac,"33, Gironde, Aquitaine",33508
1751,Cadaujac,17,,556235761,,bibliotheque.cadaujac@orange.fr,,BDP Cadaujac,,,45,,AVENUE DU GÉNÉRAL DE GAULLE,,33140,CADAUJAC,33080,27,,Oui,0,0,,0,,,,,,,, 16h00, 19h00,10h00, 12h00, 14h00, 19h00,,,,,10h00, 12h00,,,10h00, 12h00,,,,,,,44.755265,-0.530292,45 Avenue du Général de Gaulle 33140 Cadaujac,0.91,housenumber,ADRNIVX_0000000335675960,45,Avenue du Général de Gaulle,,33140,Cadaujac,"33, Gironde, Aquitaine",33080
1752,Vayres,22,,557551930,557552556,bibliotheque@wanadoo.fr,http://bibliotheque-vayres.over-blog.com,BDP Vayres,,,44,,AVENUE DE LIBOURNE,,33870,VAYRES,33539,30,,Oui,1,1,,0,,,,,,,,,,09h00, 12h30, 14h00, 18h00,,,,,,, 16h00, 19h00,09h00, 12h30,,,,,,,44.896864,-0.318591,44 Avenue de Libourne 33870 Vayres,0.91,housenumber,ADRNIVX_0000000332274536,44,Avenue de Libourne,,33870,Vayres,"33, Gironde, Aquitaine",33539
1770,Vérac,20,,557844126,557848467,biblio.verac@wanadoo.fr,,BDP Vérac,,,,,BOURG,,33240,VÉRAC,33542,24,,Oui,1,1,,0,Accès aux personnes à mobilité réduite,,, 16h00, 17h00,,,,,,,,,,, 16h00, 17h00,,,,,,, 11h00, 12h00,,,,,44.990998,-0.340725,Le Bourg 33240 Vérac,0.77,locality,33542_B017_f128c1,,Le Bourg,,33240,Vérac,"33, Gironde, Aquitaine",33542
1166,Cudos,20,,556254408,556254739,E.cudos@ac-bordeaux.fr,,BDP Cudos,,,,,LE BOURG,,33430,CUDOS,33144,4,,Oui,0,0,,0,Accès aux personnes à mobilité réduite,,,,,,, 13h30, 16h30,10h30, 12h00,,,,, 15h00, 16h30,,, 16h30, 18h00,,,,,,,,,44.387893,-0.218854,Le Bourg-Est 33430 Cudos,0.75,locality,33144_B041_427fd4,,Le Bourg-Est,,33430,Cudos,"33, Gironde, Aquitaine",33144
1718,Saint-Louis-de-Montferrand,15,,556774721,556774028,bibliothequedestlouis@wanadoo.fr,,BDP Saint-Louis-de-Montferrand,,,,,RUE LOUIS MONTEAU,,33440,SAINT LOUIS DE MONTFERRAND,33434,60,,Oui,0,0,,0,Accès aux personnes à mobilité réduite,,,,,,,,,,,,,,,,,,,,,,,,,,,,,44.951394,-0.533721,Rue Louis Monteau 33440 Saint-Louis-de-Montferrand,0.91,street,33434_0580_8ae49c,,Rue Louis Monteau,,33440,Saint-Louis-de-Montferrand,"33, Gironde, Aquitaine",33434
1507,Mongauzy,26,,556617016,556617705,mongauzy@wanadoo.fr,,BDP Mongauzy,,,4,,LE BOURG SUD,,33190,MONGAUZY,33287,38,,Oui,1,0,,0,Accès aux personnes à mobilité réduite,,,,,,,,,,,,,,,,,,,,,,,,,,,,,44.566808,0.035977,4 Bourg Sud 33190 Mongauzy,0.81,housenumber,ADRNIVX_0000000332256157,4,Bourg Sud,,33190,Mongauzy,"33, Gironde, Aquitaine",33287
1524,Saint-Christophe-de-Double,26,,557695111,557495720,communedestchristophededouble@orange.fr,,BDP Saint-Christophe-de-Double,,MAIRIE,46,,LE BOURG,,33230,SAINT CHRISTOPHE DE DOUBLE,33385,22,BOUVRY Liliane,Oui,0,0,,0,Accès aux personnes à mobilité réduite,,,,,,,,,,,,,,,,,,,,,,,,,,,,,45.080164,0.01529,46 Le Bourg 33230 Saint-Christophe-de-Double,0.91,housenumber,ADRNIVX_0000000275988519,46,Le Bourg,,33230,Saint-Christophe-de-Double,"33, Gironde, Aquitaine",33385
1476,Grézillac,26,,557845210,557846751,mairie.grezillac33@wanadoo.fr,,BDP Grézillac,,MAIRIE,,B,,,33420,GRÉZILLAC,33194,16,PERRET Isabelle,Non,0,0,,0,,,,,,,,,,,,,,,, 13h30, 15h30,,,,,,,,,,,,,44.827126,-0.200454,Jos 33420 Grézillac,0.72,locality,33194_B056_03f7bd,,Jos,,33420,Grézillac,"33, Gironde, Aquitaine",33194
1555,Puybarban,25,,556611094,556612535,mairie.puybarban@wanadoo.fr,,BDP Puybarban,,MAIRIE,,B,,,33190,PUYBARBAN,33346,3,CARMAGNAC Christine,Oui,0,0,,0,,,,,,,, 16h30, 18h30,,,,,,, 16h30, 18h30,,,,,,,,,,,,,44.534256,-0.069944,Jeudi 33190 Puybarban,0.65,locality,33346_B034_0ae182,,Jeudi,,33190,Puybarban,"33, Gironde, Aquitaine",33346
2011,Villenave d'Ornon,32,,557965630,557965640,service.mediatheque@mairie-villenavedornon.fr,,BDP Villenave d'Ornon,,,46,B,RUE JEAN-JACQUES ROUSSEAU,,33140,VILLENAVE D ORNON,33550,57,,Non,0,0,,0,,,,,,,,,,,,,,,,,,,,,,,,,,,,,,44.763711,-0.584681,46 BIS Rue Jean-Jacques Rousseau 33140 Villenave-d'Ornon,0.86,housenumber,ADRNIVX_0000000276419371,46 BIS,Rue Jean-Jacques Rousseau,,33140,Villenave-d'Ornon,"33, Gironde, Aquitaine",33550
1635,Cissac-Médoc,15,,556739353,556739481,bibliotheque.cissac-medoc@orange.fr,,BDP Cissac-Médoc,,,7,,RUE DU COMMERCE,,33250,CISSAC MÉDOC,33125,33,,Oui,0,0,,0,Accès aux personnes à mobilité réduite,,,,,,, 15h00, 17h30,,, 15h30, 17h30,,,,,,,,,10h30, 12h00,,,,,,,45.226779,-0.831823,Rue du Commerce 33250 Cissac-Médoc,0.86,street,33125_0018_887c94,,Rue du Commerce,,33250,Cissac-Médoc,"33, Gironde, Aquitaine",33125
1682,Latresne,10,,556207234,,bibliotheque@mairie-latresne.fr,,BDP Latresne,,,3,,RUE DES ARPÈGES,,33360,LATRESNE,33234,23,,Oui,1,1,,0,accès aux personnes à mobilité réduite,,,,,,, 15h30, 19h30,10h00, 12h00, 14h00, 19h00,,, 15h30, 19h30,,, 15h30, 19h00,10h00, 13h00,,,,,,,44.787106,-0.484868,3 Rue des Arpèges 33360 Latresne,0.91,housenumber,ADRNIVX_0000000276389155,3,Rue des Arpèges,,33360,Latresne,"33, Gironde, Aquitaine",33234
1479,Sainte-Hélène,16,,557886168,556585104,bibmunsh@gmail.com,,BDP Sainte-Hélène,,,,,PLACE DU 11 NOVEMBRE,,33480,SAINTE HÉLÈNE,33417,20,,Oui,0,0,,0,Accès aux personnes à mobilité réduite,,,,,,,,,,, 15h00, 17h00,,,,,,,,,10h00, 12h00,,,,,,,44.964573,-0.884456,Place du Onze Novembre 33480 Sainte-Hélène,0.75,street,33417_0026_59f98b,,Place du Onze Novembre,,33480,Sainte-Hélène,"33, Gironde, Aquitaine",33417
2030,Martillac,4,,616244586,556726578,bibliotheque@mairie-martillac.fr,,BDP Martillac,,,,,IMPASSE DU BOURG,,33650,MARTILLAC,,27,,Oui,0,0,,0,,,,,,,, 16h00, 18h00,,, 15h00, 18h00,,,,,,,,,10h00, 12h00,,,,,,,44.713033,-0.542869,Impasse du Bourg 33650 Martillac,0.91,street,33274_0140_afd5ea,,Impasse du Bourg,,33650,Martillac,"33, Gironde, Aquitaine",33274
2007,Pessac,32,,557936700,557936701,biblio.admin@mairie-pessac.fr,http://mediatheque.mairie-pessac.fr/,BDP Pessac,,,21,,RUE DE CAMPONAC,,33600,PESSAC,33318,97,,Non,0,0,,0,,,,,,,,,,,,,,,,,,,,,,,,,,,,,,44.799853,-0.643188,21 Rue Camponac 33600 Pessac,0.83,housenumber,ADRNIVX_0000000276362520,21,Rue Camponac,,33600,Pessac,"33, Gironde, Aquitaine",33318
1576,Vertheuil,9,,556418489,556733819,bibliothequedevertheuil@orange.fr,http://www.vertheuil-medoc.com/la-bibiotheque,BDP Vertheuil,,,,,COUR DE L'HONNEUR,,33180,VERTHEUIL,33545,33,,Oui,0,0,,0,,,,,,,,,,,,,,,,,,,,,,,,,,,,,,45.247998,-0.879886,Rue de la Source 33180 Vertheuil,0.46,street,33545_0306_227173,,Rue de la Source,,33180,Vertheuil,"33, Gironde, Aquitaine",33545
1526,Les Lèves-et-Thoumeyragues,20,,557412115,557412088,leslevesetthoumeyragues@bdp33.fr,,BDP Les Lèves-et-Thoumeyragues,,MAIRIE,,B,,,33220,LES LÈVES ET THOUMEYRAGUES,33242,41,QUEYREAU GONZALEZ Alexandra,Non,0,0,,0,,,,,,,,,,,,,,,,,,,,,,,,,,,,,,44.778827,0.170068,Rait 33220 Les Lèves-et-Thoumeyragues,0.79,locality,33242_B079_56fa8f,,Rait,,33220,Les Lèves-et-Thoumeyragues,"33, Gironde, Aquitaine",33242
1604,Saint-Gervais,27,,557430206,557431510,,,BDP Saint-Gervais,,MAIRIE,,,CHÂTEAU DU BART,,33240,SAINT GERVAIS,33415,39,MORISSEL,Non,0,0,,0,,,,,,,,,,,,,,,,,,,,,,,,,,,,,,45.016943,-0.464465,CHATEAU DU BART 33240 Saint-Gervais,0.91,street,33415_XXXX_987432,,CHATEAU DU BART,,33240,Saint-Gervais,"33, Gironde, Aquitaine",33415
1687,Laruscade,20,,557685792,557681484,biblio@mairie-laruscade.fr,,BDP Laruscade,,,106,,LE BOURG,,33620,LARUSCADE,33233,44,,Oui,0,1,,0,Accès aux personnes à mobilité réduite,,,,,10h00, 12h00,,,,, 14h00, 17h00,,,,,,,,,10h00, 12h00,,,,,,,45.10839,-0.343337,106 Le Bourg 33620 Laruscade,0.91,housenumber,ADRNIVX_0000000275967428,106,Le Bourg,,33620,Laruscade,"33, Gironde, Aquitaine",33233
1377,Saint-Magne-de-Castillon,21,,557400087,557404073,chateaublanzac@cegetel.net,,BDP Saint-Magne-de-Castillon,,MAIRIE,81,,AVENUE DU GÉNÉRAL DE GAULLE,,33350,SAINT MAGNE DE CASTILLON,33437,21,DEPONS Véronique,Oui,0,0,,0,,,,,,,,,,,, 14h00, 18h00,,,,,,,,,,,,,,,,,44.864565,-0.07086,81 Avenue du Général de Gaulle 33350 Saint-Magne-de-Castillon,0.91,housenumber,ADRNIVX_0000000276221959,81,Avenue du Général de Gaulle,,33350,Saint-Magne-de-Castillon,"33, Gironde, Aquitaine",33437
1035,Cabanac-et-Villagrains,16,,556687051,556687183,bibliotheque@cabanac-villagrains.fr,,BDP Cabanac-et-Villagrains,,,14,,PLACE SAINT MARTIN,,33650,CABANAC ET VILLAGRAINS,33077,27,,Oui,0,0,,0,accès aux personnes à mobilité réduite,,,,,,,,,,,,,,,,,,,,,,,,,,,,,44.605572,-0.554727,14 Place Saint-Martin 33650 Cabanac-et-Villagrains,0.91,housenumber,ADRNIVX_0000000353970168,14,Place Saint-Martin,,33650,Cabanac-et-Villagrains,"33, Gironde, Aquitaine",33077
1451,Guîtres,9,,557691562,557561940,bibliotheque.guitres@orange.fr,,BDP Guîtres,,,2,,RUE DU COLOMBIER,,33230,GUÎTRES,33198,26,,Oui,0,0,,0,Accés aux personnes à mobilité réduite,,, 14h00, 17h00,,,,,10h00, 12h00, 14h00, 17h00,,,,,,,,,,, 14h00, 17h00,,,,,45.0407,-0.18614,2 Rue du Colombier 33230 Guîtres,0.92,housenumber,ADRNIVX_0000000311874989,2,Rue du Colombier,,33230,Guîtres,"33, Gironde, Aquitaine",33198
1620,Lapouyade,7,,557494289,557494743,bm.lapouyade@wanadoo.fr,,BDP Lapouyade,,,,,ESPACE GÉRARD DENOËL,,33620,LAPOUYADE,33230,26,,Oui,1,1,,1,Accès aux personnes à mobilité réduite,,, 14h30, 17h30,,, 14h30, 17h30,,, 14h30, 18h00,,, 14h30, 17h30,,, 14h30, 17h30,,,,,,,,,,,,,,,,,,,,,
1788,Saint-Caprais-de-Blaye,19,,557327430,557327907,pointlecture.caprais@laposte.net,,BDP Saint-Caprais-de-Blaye,,MAIRIE,,B,,,33820,SAINT CAPRAIS DE BLAYE,33380,40,RAFFENAUD,Oui,1,1,,1,,,, 17h00, 18h30,,,,,11h00, 12h00,,,,,,,,,,,,,,,,,,,45.286422,-0.549301,Marot 33820 Saint-Caprais-de-Blaye,0.75,locality,33380_B017_d9553e,,Marot,,33820,Saint-Caprais-de-Blaye,"33, Gironde, Aquitaine",33380
1096,Saint-Ciers-sur-Gironde,4,,557328436,557328437,mediatheque.st-ciers-gironde@wanadoo.fr,http://mediatheque.saintcierssurgironde.fr,BDP Saint-Ciers-sur-Gironde,,,5,,RUE DU PETIT VILLAGE,,33820,SAINT CIERS SUR GIRONDE,33389,40,,Oui,1,4,,0,Accès aux personnes à mobilité réduite,,,,,,, 14h00, 18h00,09h30, 12h30, 14h00, 18h00,,, 15h30, 18h00,,, 14h00, 19h00,09h30, 12h30, 14h00, 17h00,,,,,45.291874,-0.614975,5 Rue du Petit Village 33820 Saint-Ciers-sur-Gironde,0.92,housenumber,ADRNIVX_0000000275916845,5,Rue du Petit Village,,33820,Saint-Ciers-sur-Gironde,"33, Gironde, Aquitaine",33389
1655,Pauillac,11,,556590220,556590194,bibliotheque.pauillac@wanadoo.fr,,BDP Pauillac,,,13,,RUE ARISTIDE BRIAND,,33250,PAUILLAC,33314,33,,Oui,1,1,,0,,,,,,,, 15h00, 18h00,10h00, 18h00,,,10h00, 12h00,,,,, 15h00, 18h00,10h00, 15h00,,,,,,,45.198996,-0.746828,13 Rue Aristide Briand 33250 Pauillac,0.92,housenumber,ADRNIVX_0000000275934809,13,Rue Aristide Briand,,33250,Pauillac,"33, Gironde, Aquitaine",33314
1721,Tresses,10,,557340424,557340618,mediatheque@tresses.org,mediathequetresses.wordpress.com/,BDP Tresses,,,5,,AVENUE DES ÉCOLES,,33370,TRESSES,33535,58,,Oui,1,0,,0,,,,,,,, 16h30, 19h00,,, 14h00, 18h30,,,,,,, 16h00, 18h30,10h00, 12h00,,,,,,,44.848206,-0.463161,5 Avenue des Écoles 33370 Tresses,0.91,housenumber,ADRNIVX_0000000354325816,5,Avenue des Écoles,,33370,Tresses,"33, Gironde, Aquitaine",33535
1769,Saucats,16,,556722155,516440537,biblio@mairie-saucats.fr,,BDP Saucats,,,4,,CHEMIN DE LA MAIRIE,,33650,SAUCATS,33501,27,,Oui,0,1,,0,,,, 17h00, 18h00,,, 17h00, 18h00,,,,,,,,,11h30, 13h00,,,10h00, 12h00,,,,,,,44.651087,-0.597208,4 Chemin de la Mairie 33650 Saucats,0.91,housenumber,ADRNIVX_0000000276518610,4,Chemin de la Mairie,,33650,Saucats,"33, Gironde, Aquitaine",33501
1501,Lalande-de-Pomerol,26,,557514006,557519490,mairie.lalande.pomerol@orange.fr,,BDP Lalande-de-Pomerol,,MAIRIE,6,,LANDE,,33500,LALANDE DE POMEROL,33222,30,LAGARDE,Oui,1,0,,0,,,,,,,,,,,,,,,,,,,,,,,,,,,,,,44.956642,-0.21166,6 Rue de Lalande 33500 Lalande-de-Pomerol,0.71,housenumber,ADRNIVX_0000000340186764,6,Rue de Lalande,,33500,Lalande-de-Pomerol,"33, Gironde, Aquitaine",33222
1486,Asques,25,,557581572,557581826,asquesmairie@orange.fr,,BDP Asques,,,95,,RUE DE L'ÉCOLE,,33240,ASQUES,33016,24,,Oui,0,0,,0,,,,,,,,,,,,,,,, 16h30, 18h00,,,,,,,,,,,,,44.952196,-0.413242,95 Rue de l'École 33240 Asques,0.91,housenumber,ADRNIVX_0000000276073808,95,Rue de l'École,,33240,Asques,"33, Gironde, Aquitaine",33016
1012,Saint-Magne,20,,556885109,556885403,,,BDP Saint-Magne,,MAIRIE,,B,,,33125,SAINT MAGNE,33436,5,DE ROBERT Nicole,Oui,0,0,,0,,,,,,,,,,,,,,,,,,,,,,,,,,,,,,44.589883,-0.628584,Treytin 33125 Saint-Magne,0.62,locality,33436_XXXX_a89bdc,,Treytin,,33125,Saint-Magne,"33, Gironde, Aquitaine",33436
1717,Saint-Loubès,6,,556789882,556686980,bibliotheque-municipale@saint-loubes.fr,,BDP Saint-Loubès,,,32,,CHEMIN DE NICE,,33450,SAINT LOUBÈS,33433,19,,Oui,1,4,,0,accès aux personnes à mobilité réduite,,,,,,, 14h00, 18h00,10h00, 12h00, 14h00, 17h30,,,,,,, 14h00, 18h00,10h00, 12h00, 14h00, 17h30,,,,,44.91375,-0.421796,32 Chemin de Nice 33450 Saint-Loubès,0.91,housenumber,ADRNIVX_0000000276110952,32,Chemin de Nice,,33450,Saint-Loubès,"33, Gironde, Aquitaine",33433
1586,Soulignac,25,,556239212,556234105,mairie.soulignac@wanadoo.fr,,BDP Soulignac,,MAIRIE,,B,,,33760,SOULIGNAC,33515,48,NADEAU Patricia,Oui,0,0,,0,Accès aux personnes à mobilité réduite,,,,,09h00, 12h00,,,,,,,09h00, 12h00,,,,,,,09h00, 12h00,,,,,,,44.682994,-0.289115,Sas 33760 Soulignac,0.72,locality,33515_B128_ceee62,,Sas,,33760,Soulignac,"33, Gironde, Aquitaine",33515
1467,Saint-Médard-de-Guizières,16,,557564545,557697619,s.mairie@saintmedarddeguizieres.fr,,BDP Saint-Médard-de-Guizières,,,,,IMPASSE DU CHÂTEAU D'EAU,,33230,SAINT MÉDARD DE GUIZIÈRES,33447,22,,Oui,0,0,,0,,,,,,,, 15h00, 18h30,,, 15h00, 18h00,,, 15h00, 18h30,,,,,,,,,,,,,45.017994,-0.056646,Impasse du Château d'Eau 33230 Saint-Médard-de-Guizières,0.91,street,33447_0032_2b6276,,Impasse du Château d'Eau,,33230,Saint-Médard-de-Guizières,"33, Gironde, Aquitaine",33447
1103,Baurech,20,,556213154,,clubdelecture.baurech@gmail.com,,BDP Baurech,,MAIRIE,,,LE BOURG,,33880,BAURECH,33033,23,BAUSTERT Ariane,Oui,0,0,,0,Accès aux personnes à mobilité réduite,,,,,,, 16h00, 18h00,,,,,,,,,,,,,11h00, 12h00,,,,,,,44.725488,-0.439553,Impasse du Bourg 33880 Baurech,0.61,street,33033_XXXX_176b8d,,Impasse du Bourg,,33880,Baurech,"33, Gironde, Aquitaine",33033
1552,Bagas,25,,556713590,556714046,,,BDP Bagas,,,43,,ROUTE DU DROPT,,33190,BAGAS,33024,38,,Oui,0,0,,0,Accès aux personnes à mobilité réduite,,,,,,,,,,, 14h30, 16h30,,,,,,,,,,,,,,,,,44.624992,-0.055895,43 Route du Dropt 33190 Bagas,0.91,housenumber,ADRNIVX_0000000276552088,43,Route du Dropt,,33190,Bagas,"33, Gironde, Aquitaine",33024
1748,Soussans,21,,557883304,557883708,mairie.soussans33@wanadoo.fr,,BDP Soussans,,,16,,ROUTE DE PAUILLAC,,33460,SOUSSANS,33517,20,,Oui,0,0,,0,Accès aux personnes à mobilité réduite,,,,,,,,,,,,,,,,,,,,,,,,,,,,,45.056151,-0.699942,16 Route de Pauillac 33460 Soussans,0.91,housenumber,ADRNIVX_0000000354014524,16,Route de Pauillac,,33460,Soussans,"33, Gironde, Aquitaine",33517
1662,Saint-Seurin-de-Cadourne,20,,556593110,556597255,mairiesaintseurincadourne@wanadoo.fr,,BDP Saint-Seurin-de-Cadourne,,,,,PLACE DU 11 NOVEMBRE 1918,,33180,SAINT SEURIN DE CADOURNE,33476,33,,Oui,0,0,,0,,,,,,,,,,,, 14h00, 17h30,,,,,,,,,,,,,,,,,45.286202,-0.789397,Place du 11 Novembre 1918 33180 Saint-Seurin-de-Cadourne,0.91,street,33476_XXXX_e4c855,,Place du 11 Novembre 1918,,33180,Saint-Seurin-de-Cadourne,"33, Gironde, Aquitaine",33476
2080,Listrac-Médoc,4,,,,,,BDP Listrac-Médoc,,,,,,,,,,,,Oui,,,,,,,,,,,,,,,,,,,,,,,,,,,,,,,,,,,,,,,,,,,,,,
1178,La Réole,17,,556619494,556712157,philippe.saujeon@lareole.fr,,BDP La Réole,,,,,ESPLANADE DU GÉNÉRAL DE GAULLE,,33190,LA RÉOLE,33352,38,,Oui,0,0,,0,,,,,,,,,,,,,,,,,,,,,,,,,,,,,,44.581128,-0.041074,Esplanade Charles de Gaulle 33190 La Réole,0.59,street,33352_XXXX_ee08aa,,Esplanade Charles de Gaulle,,33190,La Réole,"33, Gironde, Aquitaine",33352
1716,Sainte-Eulalie,11,,556383521,,bibliotheque@mairie-ste-eulalie.fr,,BDP Sainte-Eulalie,,,5,,PLACE FRANZ LISZT,,33560,SAINTE EULALIE,33397,19,,Oui,1,3,,0,,,,,,,, 14h00, 18h00,10h00, 12h00, 14h00, 18h30,,, 14h00, 18h00,,, 14h00, 18h00,10h00, 13h00,,,,,,,44.908607,-0.475529,5 Place Frantz Liszt 33560 Sainte-Eulalie,0.85,housenumber,ADRNIVX_0000000332938395,5,Place Frantz Liszt,,33560,Sainte-Eulalie,"33, Gironde, Aquitaine",33397
1651,Civrac-en-Médoc,26,,556415102,556413744,mairie.civrac.medoc@wanadoo.fr,,BDP Civrac-en-Médoc,,,2,,RUE DU 08 MAI 1945,,33340,CIVRAC EN MÉDOC,33128,29,,Oui,0,0,,0,,,,,,,,,,,,,,,,,,,,,,,,,,,,,,45.338443,-0.898333,Rue du Huit Mai 1945 33340 Civrac-en-Médoc,0.71,street,33128_0320_5c3c2b,,Rue du Huit Mai 1945,,33340,Civrac-en-Médoc,"33, Gironde, Aquitaine",33128
1180,Préchac,21,,556652017,556652687,mairie-prechac33@prechac33.fr,,BDP Préchac,,MAIRIE,,B,,,33730,PRÉCHAC,33336,50,DUPRAT Monique,Oui,0,0,,0,,,,,,,,,,,,,,,,,,,, 14h00, 17h00,10h00, 12h00,,,,,,,44.389113,-0.360048,Bron 33730 Préchac,0.66,locality,33336_B031_f15ef1,,Bron,,33730,Préchac,"33, Gironde, Aquitaine",33336
1744,Saint-Romain-la-Virvée,26,,557582138,557582533,mairiestromainlavirvee@wanadoo.fr,,BDP Saint-Romain-la-Virvée,,,,,PLACE DE LA MAIRIE,,33240,SAINT ROMAIN LA VIRVÉE,33470,24,,Oui,0,0,,0,Accès aux personnes à mobilité réduite,,, 14h30, 15h30,,,,,,,,,,,,,,,,,11h00, 12h00,,,,,,,44.965681,-0.400109,Place de la Mairie 33240 Saint-Romain-la-Virvée,0.91,street,33470_0150_0983a9,,Place de la Mairie,,33240,Saint-Romain-la-Virvée,"33, Gironde, Aquitaine",33470
1162,Caudrot,20,,556628123,556627122,mairiecaudrot@orange.fr,,BDP Caudrot,,,,,CENTRE SOCIO-CULTUREL,,33490,CAUDROT,33111,43,,Oui,0,0,,0,Accès aux personnes à mobilité réduite,,,,,,,,,,, 15h00, 17h30,,, 15h00, 16h30,,,,,,, 14h00, 15h30,,,,,44.569962,-0.152798,L'Île 33490 Caudrot,0.37,locality,33111_B012_24d1cc,,L'Île,,33490,Caudrot,"33, Gironde, Aquitaine",33111
2089,Saint Julien Beychevelle,0,,,,,,BDP Saint Julien Beychevelle,,,,,,,,,,,,Oui,0,0,,0,,,,,,,,,,,,,,,,,,,,,,,,,,,,,,,,,,,,,,,,,,
1680,Castelnau-de-Médoc,16,,556582389,,contact@mairie-castelnau-medoc.fr,,BDP Castelnau-de-Médoc,,,34,,RUE VICTOR HUGO,,33480,CASTELNAU DE MÉDOC,33104,20,,Oui,0,0,,0,Accès aux personnes à mobilité réduite,,,,,09h00, 11h30,,,,, 14h00, 19h00,,,,,,, 16h30, 19h00,,,,,,,,,45.027268,-0.800963,34 Rue Victor Hugo 33480 Castelnau-de-Médoc,0.92,housenumber,ADRNIVX_0000000276007044,34,Rue Victor Hugo,,33480,Castelnau-de-Médoc,"33, Gironde, Aquitaine",33104
2079,Saint-Yzans-de-Médoc,0,,,,,,BDP Saint-Yzans-de-Médoc,,,,,,,,,,,,Oui,,,,,,,,,,,,,,,,,,,,,,,,,,,,,,,,,,,,,,,,,,,,,,
1580,Saint-Sève,25,,556612829,556612829,saint-seve@wanadoo.fr,,BDP Saint-Sève,,MAIRIE,,B,,,33190,SAINT SÈVE,33479,38,BRETON Aurélie,Oui,0,0,,0,,,,,,,,,,,,,,,,,,,,,,,,,,,,,,44.610914,-0.02557,Bayle 33190 Saint-Sève,0.66,locality,33479_B002_95aded,,Bayle,,33190,Saint-Sève,"33, Gironde, Aquitaine",33479
1549,Lagorce,21,,557560530,557560531,mairie.de.lagorce@wanadoo.fr,,BDP Lagorce,,,11,,LIEU DIT MONTIGAUD,,33230,LAGORCE,33218,26,,Oui,0,0,,0,,,, 14h00, 18h00,,, 14h00, 18h00,,, 14h00, 18h00,,, 14h00, 18h00,,, 14h00, 18h00,,,,,,,,,,,,,,,,,,,,,
1595,Bayas,13,,557692001,,mairiedebayas@wanadoo.fr,,BDP Bayas,,,13,,AVENUE DE L'EUROPE,,33230,BAYAS,33034,26,,Oui,0,0,,0,Accès aux personnes à mobilité réduite,,, 17h00, 19h00,,,,,,,,,,,,,,, 16h00, 18h00,,,,,,,,,45.060926,-0.205335,13 Avenue de l'Europe 33230 Bayas,0.91,housenumber,ADRNIVX_0000000275995855,13,Avenue de l'Europe,,33230,Bayas,"33, Gironde, Aquitaine",33034
1737,Brach,19,,556581631,556581297,bibli.brach@wanadoo.fr,,BDP Brach,,,,,ALLÉE DES AJONCS,,33480,BRACH,33070,20,,Oui,1,1,,0,Accès aux personnes à mobilité réduite,,,,,,, 17h00, 18h30,,,,,,,,,,,,,10h00, 11h00,,,,,,,45.041864,-0.939719,Allée des Ajoncs 33480 Brach,0.91,street,33070_0001_e125d0,,Allée des Ajoncs,,33480,Brach,"33, Gironde, Aquitaine",33070
1768,Saint-Vivien-de-Monségur,25,,556616277,556616277,saint-vivien-de-monsegur@wanadoo.fr,,BDP Saint-Vivien-de-Monségur,,,,,RUE DU 8 MAI 1945,,33580,SAINT VIVIEN DE MONSÉGUR,33491,32,,Oui,0,0,,0,,,,,,,,,,,,,,,, 16h00, 16h30,,,,,,, 14h30, 16h00,,,,,44.61684,0.105119,Avenue du 8 Mai 33580 Saint-Vivien-de-Monségur,0.73,street,33491_0025_714928,,Avenue du 8 Mai,,33580,Saint-Vivien-de-Monségur,"33, Gironde, Aquitaine",33491
1608,Lugasson,25,,556239678,556239678,lugasson@bdp33.fr,,BDP Lugasson,,MAIRIE,,B,,,33760,LUGASSON,33258,48,COVER Martine,Non,0,0,,0,,08h00, 12h00,,,,, 14h00, 18h00,,,,,,, 14h00, 18h00,,,,,,,,,,,,,44.757054,-0.159404,Fauroux 33760 Lugasson,0.58,locality,33258_B010_7ff89a,,Fauroux,,33760,Lugasson,"33, Gironde, Aquitaine",33258
1567,Mesterrieux,25,,556714944,556714944,sylg.d@hotmail.fr,,BDP Mesterrieux,,MAIRIE,,B,,,33540,MESTERRIEUX,33283,32,DUBUC Sylvie,Oui,0,0,,0,Accès aux personnes à mobilité réduite,,,,,,, 15h00, 18h00,,,,,,,,,,,,,,,,,,,,,44.647451,-0.011529,Bâillon 33540 Mesterrieux,0.62,locality,33283_B003_edc1d8,,Bâillon,,33540,Mesterrieux,"33, Gironde, Aquitaine",33283
1575,Arcins,19,,556589390,557885102,mairie.arcins@wanadoo.fr,,BDP Arcins,,,4,,ROUTE DE PAUILLAC,,33460,ARCINS,33010,20,,Oui,0,0,,0,,,,,,,, 16h00, 18h00,,,,,,,,,,, 16h00, 18h00,,,,,,,,,45.074649,-0.726324,4 Route de Pauillac 33460 Arcins,0.91,housenumber,ADRNIVX_0000000326765635,4,Route de Pauillac,,33460,Arcins,"33, Gironde, Aquitaine",33010
1522,Morizès,26,,556714080,556714080,morizes2@wanadoo.fr,,BDP Morizès,,MAIRIE,,B,,,33190,MORIZÈS,33294,38,CHOVIN Michèle,Oui,0,0,,0,,,, 16h00, 17h00,,,,,,,,,,,,,,,,,,, 14h00, 16h00,,,,,44.615884,-0.090848,Catoy 33190 Morizès,0.62,locality,33294_B013_6b0e07,,Catoy,,33190,Morizès,"33, Gironde, Aquitaine",33294
1692,Maransin,21,,557494115,557690533,bibliotheque.commune-2-maransin@orange.fr,,BDP Maransin,,,38,,LE BOURG,,33230,MARANSIN,33264,26,,Oui,0,0,,1,Accès aux personnes à mobilité réduite,,,,,,,,,,, 14h00, 17h00,,,,,,,,,09h00, 12h00,,,,,,,45.071221,-0.268339,38 Le Bourg 33230 Maransin,0.91,housenumber,ADRNIVX_0000000275988767,38,Le Bourg,,33230,Maransin,"33, Gironde, Aquitaine",33264
1184,Saint-Maixant,27,,556620308,556620436,,,BDP Saint-Maixant,,,,,PLACE DE LA MAIRIE,,33490,SAINT MAIXANT,,43,,Non,0,0,,0,,,,,,,,,,,,,,,,,,,,,,,,,,,,,,44.579207,-0.238622,DOMAINE DE MALAGAR 33490 Saint-Maixant,0.52,street,33438_XXXX_e93593,,DOMAINE DE MALAGAR,,33490,Saint-Maixant,"33, Gironde, Aquitaine",33438
1790,Saint-Paul,20,,557420801,557428455,bibliotheque.saintpaul@orange.fr,,BDP Saint-Paul,,,,,LE BOURG,,33390,SAINT PAUL,33458,7,,Oui,1,1,,0,,,, 15h30, 17h30,,,,,,,,,,, 15h30, 17h30,,,,,11h00, 12h00,,,,,,,45.148178,-0.604526,Le Bourg 33390 Saint-Paul,0.91,street,33458_XXXX_3bd98b,,Le Bourg,,33390,Saint-Paul,"33, Gironde, Aquitaine",33458
1233,Pujols-sur-Ciron,26,,556766514,556766099,marion.roche@cc-podensac.fr,,BDP Pujols-sur-Ciron,,CDC PODENSAC-PRIMEVER ,12,,RUE DU MARÉCHAL LECLERC DE HAUTECLOCQUE,,33720,PODENSAC,33343,36,ROCHE Marion,Oui,0,0,,0,,,,,,,,,,,,,,,,,,,,,,,,,,,,,,,,,,,,,,,,,,
1069,Le Barp,5,,556886390,556882590,mediatheque@ville-le-barp.fr,http://www.ville-le-barp.fr/contenu-des-pages/10.html,BDP Le Barp,,,,,LE CHALET,,33114,LE BARP,33029,5,,Oui,1,5,,5,Accès aux personnes à mobilité réduite,,,,,,,,,09h30, 12h30, 14h00, 18h00,,, 16h00, 19h00,,, 16h00, 19h00,10h00, 12h00, 12h00, 16h00,,,,,44.599534,-0.760275,Allée Charles Péguy 33114 Le Barp,0.54,street,33029_0035_858ff1,,Allée Charles Péguy,,33114,Le Barp,"33, Gironde, Aquitaine",33029
2013,Haux,20,,556236448,,bibliomedia.haux33@orange.fr,,BDP Haux,,,1,,LOTISSEMENT BERGUEIL,,33550,HAUX,33201,23,,Oui,1,3,,0,accès aux personnes à mobilité réduite,,,,,,, 15h00, 18h00,,, 15h00, 18h00,,,,,,, 16h00, 19h00,,,,,,,,,44.735929,-0.357611,Lotissement Bergueil 33550 Haux,0.85,street,33201_XXXX_bcd9d7,,Lotissement Bergueil,,33550,Haux,"33, Gironde, Aquitaine",33201
1781,Cartelègue,20,,557429597,557645382,bibliotheque@cartelegue.fr,,BDP Cartelègue,,,2,,RUE DE L'ÉCOLE,,33390,CARTELÈGUE,33101,7,,Oui,0,0,,0,,,,,,,,,,,,,,,, 15h30, 17h00,,,,,11h00, 12h00,,,,,,,45.184928,-0.581193,2 Rue de l'École 33390 Cartelègue,0.91,housenumber,ADRNIVX_0000000275941024,2,Rue de l'École,,33390,Cartelègue,"33, Gironde, Aquitaine",33101
1577,Margaux,21,,557888618,557887626,bibliothequemargaux@orange.fr,,BDP Margaux,,,,,RUE DE LA TREMOILLE,,33460,MARGAUX,33268,20,,Oui,0,0,,0,Accès aux personnes à mobilité réduite,,,,,,,,,,, 14h30, 16h30,,,,,,,,,09h30, 11h30,,,,,,,45.04266,-0.677442,Rue de la Tremoille 33460 Margaux,0.91,street,33268_0122_6a6a58,,Rue de la Tremoille,,33460,Margaux,"33, Gironde, Aquitaine",33268
2078,Bégadan,2,,,,,,BDP Bégadan,,,,,,,,,,,,Oui,,,,,,,,,,,,,,,,,,,,,,,,,,,,,,,,,,,,,,,,,,,,,,
1734,Galgon,16,,557550410,557550419,mairie-de-galgon.bibliotheque@wanadoo.fr,,BDP Galgon,,,,,ESPLANADE FRANÇOIS MITTERRAND,,33133,GALGON,33179,24,,Oui,0,0,,0,Accès aux personnes à mobilité réduite,,, 16h30, 18h30,,,,,10h30, 12h00, 16h30, 18h30,,,,,,, 16h30, 18h30,10h00, 12h00,,,,,,,44.991125,-0.278067,Avenue François Mitterrand 33133 Galgon,0.66,street,33179_XXXX_55f6ff,,Avenue François Mitterrand,,33133,Galgon,"33, Gironde, Aquitaine",33179
1709,Bassens,6,,557808178,557808158,mediatheque@ville-bassens.fr,http://www.ville-bassens.fr/,BDP Bassens,,,,,RUE DU 8 MAI 1945,,33530,BASSENS,33032,60,,Oui,1,0,,0,,,,,,,,,,,,,,,,,,,,,,,,,,,,,,44.899532,-0.516323,Rue du 8 Mai 1945 33530 Bassens,0.91,street,33032_XXXX_681077,,Rue du 8 Mai 1945,,33530,Bassens,"33, Gironde, Aquitaine",33032
1755,Cantenac,21,,557887479,557887479,pierre.noele.buhot@orange.fr,,BDP Cantenac,,,,,LE BOURG,,33460,CANTENAC,33091,20,,Oui,0,0,,0,,,,,,,,,,,,,,,,,,,,,,,,,,,,,,45.029282,-0.654596,Le Bourg-Nord 33460 Cantenac,0.74,locality,33091_B021_6a0f1d,,Le Bourg-Nord,,33460,Cantenac,"33, Gironde, Aquitaine",33091
1550,Gabarnac,25,,556629774,556629774,mairie-de-gabarnac@wanadoo.fr,,BDP Gabarnac,,MAIRIE,,B,,,33410,GABARNAC,33176,17,DUBERGEY,Oui,0,0,,0,Accès aux personnes à mobilité réduite,,, 14h00, 15h00,,,,,,,,,,,,,,,,,,,,,,,,,44.6164,-0.27824,Bern 33410 Gabarnac,0.67,locality,33176_B008_c87001,,Bern,,33410,Gabarnac,"33, Gironde, Aquitaine",33176
1531,Puisseguin,14,,557552220,557745731,mairie.puisseguin@wanadoo.fr,,BDP Puisseguin,,,22,,AVENUE BEAUSÉJOUR,,33570,PUISSEGUIN,33342,31,,Oui,0,0,,0,Accès aux personnes à mobilité réduite,,,,,,,,,,,,,,,,,,,,,,,,,,,,,44.924796,-0.074294,22 Avenue Beauséjour 33570 Puisseguin,0.91,housenumber,ADRNIVX_0000000311876665,22,Avenue Beauséjour,,33570,Puisseguin,"33, Gironde, Aquitaine",33342
2075,Brazil,0,,,,,,BDP Brazil,,,,,,,,,,,,Oui,,,,,,,,,,,,,,,,,,,,,,,,,,,,,,,,,,,,,,,,,,,,,,
1300,Cenon,32,,557773177,557773175,mediatheque@ville-cenon.fr,http://www.ville-cenon.fr/,BDP Cenon,,,1,,AVENUE DU PRÉSIDENT VINCENT AURIOL,,33153,CENON,33119,55,,Non,0,0,,0,,,,,,,,,,,,,,,,,,,,,,,,,,,,,,,,,,,,,,,,,,
1559,Grignols,9,,556255105,,bibliothequedegrignols@orange.fr,,BDP Grignols,,,4,,PLACE DE L'ÉGLISE,,33690,GRIGNOLS,33195,25,,Oui,1,0,,0,Accès aux personnes à mobiblité réduite,,,,,,, 16h30, 18h00,09h00, 12h00, 13h30, 17h30,,,,,,, 16h30, 18h30,09h00, 12h00,,,,,,,44.38805,-0.043324,4 Place de l'Église 33690 Grignols,0.92,housenumber,ADRNIVX_0000000276617173,4,Place de l'Église,,33690,Grignols,"33, Gironde, Aquitaine",33195
1758,Cussac-Fort-Médoc,15,,556589130,556589130,bibliotheque.cussac-fort-medoc@orange.fr,www.cussac-fort-medoc.fr,BDP Cussac-Fort-Médoc,,,16,,AVENUE DU HAUT MÉDOC,,33460,CUSSAC FORT MÉDOC,33146,20,,Oui,0,0,,0,Accès aux personnes à mobilité réduite,,,,,,,,,,, 16h00, 18h00,,,,,,, 17h00, 19h00,,,,,,,,,45.116399,-0.730658,Avenue du Haut Médoc 33460 Cussac-Fort-Médoc,0.85,street,33146_0280_6dc2ae,,Avenue du Haut Médoc,,33460,Cussac-Fort-Médoc,"33, Gironde, Aquitaine",33146
1706,Fargues-Saint-Hilaire,10,,556685376,556683362,bibli-fargues-st-hilaire@wanadoo.fr,,BDP Fargues-Saint-Hilaire,,,61,,AVENUE DE L'ENTRE DEUX MERS,,33370,FARGUES SAINT HILAIRE,33165,23,,Oui,1,1,,0,Accès aux personnes à mobilité réduite,,,,,,, 16h00, 18h00,10h00, 12h00, 14h00, 17h00,,, 16h00, 18h00,,, 16h00, 17h00,10h00, 12h00,,,,,,,44.825758,-0.452777,2 Avenue de l'Entre-Deux Mers 33370 Fargues-Saint-Hilaire,0.87,housenumber,ADRNIVX_0000000276303999,2,Avenue de l'Entre-Deux Mers,,33370,Fargues-Saint-Hilaire,"33, Gironde, Aquitaine",33165
1728,Audenge,11,,556269856,555603815,mediatheque@mairie-audenge.fr,,BDP Audenge,,,15,,AVENUE GAMBETTA,,33980,AUDENGE,33019,2,,Oui,1,0,,0,Accès aux personnes à mobilité réduite,,,,,09h30, 12h30, 16h00, 18h00,09h30, 12h30, 14h30, 18h00,,,,,,, 16h00, 18h00,09h30, 12h30,,,,,,,44.684152,-1.014262,15 Boulevard Gambetta 33980 Audenge,0.55,housenumber,ADRNIVX_0000000311823833,15,Boulevard Gambetta,,33980,Audenge,"33, Gironde, Aquitaine",33019
1667,Captieux,21,,556656050,556656566,contact@captieux.fr,,BDP Captieux,,,,,PLACE DU CHÂTEAU D'EAU,,33840,CAPTIEUX,33095,18,,Oui,1,0,,0,Accès aux personnes à mobilité réduite,10h00, 12h00,,,,,,,,, 15h00, 17h30,,,,,,,,,10h00, 11h30,,,,,,,44.203415,-0.263478,La Gare du Poteau 33840 Captieux,0.48,locality,33095_XXXX_13369e,,La Gare du Poteau,,33840,Captieux,"33, Gironde, Aquitaine",33095
2018,La Teste de Buch,32,,556546563,556546563,bibliotheque.lateste@orange.fr,,BDP La Teste de Buch,,,,,PLACE JEAN HAMEAU,,33260,LA TESTE,33529,49,,Non,0,0,,0,,,,,,,,,,,,,,,,,,,,,,,,,,,,,,44.632614,-1.145227,Place Jean Hameau 33260 La Teste-de-Buch,0.74,street,33529_1620_ca40ff,,Place Jean Hameau,,33260,La Teste-de-Buch,"33, Gironde, Aquitaine",33529
1584,Peujard,9,,557940225,557940229,bibpeujard@orange.fr,,BDP Peujard,,,7,,PLACE JEAN JAURÈS,,33240,PEUJARD,33321,39,,Oui,0,0,,0,Accès aux personnes à mobilité réduite,,,,,,, 16h00, 18h00,10h00, 12h00, 15h00, 18h30,,,,,,, 16h00, 18h00,10h00, 12h30,,,,,,,45.043092,-0.423204,7 Place Jean Jaurès 33240 Peujard,0.91,housenumber,ADRNIVX_0000000276002709,7,Place Jean Jaurès,,33240,Peujard,"33, Gironde, Aquitaine",33321
1795,Saint-Seurin-de-Bourg,19,,557684474,557684474,mairie.stseurindebourg@wanadoo.fr,,BDP Saint-Seurin-de-Bourg,,,3,,MARCHAIS,,33710,SAINT SEURIN DE BOURG,33475,15,,Oui,0,0,,0,,,,,,,,,,,, 17h15, 18h30,,,,,,,,,,,,,,,,,45.04865,-0.583104,Marchais 33710 Saint-Seurin-de-Bourg,0.86,locality,33475_XXXX_e14cf9,,Marchais,,33710,Saint-Seurin-de-Bourg,"33, Gironde, Aquitaine",33475
2006,Mérignac,32,,557000239,557000221,mediatheque@merignac.com,,BDP Mérignac,,,19,,PLACE CHARLES DE GAULLE,,33700,MÉRIGNAC,33281,98,,Non,0,0,,0,,,,,,,,,,,,,,,,,,,,,,,,,,,,,,44.842188,-0.64717,19 Place Charles de Gaulle 33700 Mérignac,0.93,housenumber,ADRNIVX_0000000354010959,19,Place Charles de Gaulle,,33700,Mérignac,"33, Gironde, Aquitaine",33281
2012,Lormont,32,,556062630,556745270,bibliotheque@ville-lormont.fr,http://mediatheque.lormont.fr,BDP Lormont,,,1,,RUE LOUIS BEYDTS,,33310,LORMONT,33249,60,,Non,0,0,,0,,,,,,,,,,,,,,,,,,,,,,,,,,,,,,44.882104,-0.52431,1 Rue Louis Beydts 33310 Lormont,0.92,housenumber,ADRNIVX_0000000276158742,1,Rue Louis Beydts,,33310,Lormont,"33, Gironde, Aquitaine",33249
2028,Cestas,32,,557835311,556788401,contact@mediatheque-cestas.fr,http://www.mediatheque-cestas.fr/,BDP Cestas,,,,,PLACE DU SOUVENIR,,33610,CESTAS,,59,,Non,0,0,,0,,,,,,,,,,,,,,,,,,,,,,,,,,,,,,44.742014,-0.685423,Place du Souvenir 33610 Cestas,0.92,street,33122_2095_146d1d,,Place du Souvenir,,33610,Cestas,"33, Gironde, Aquitaine",33122
1841,Prignac-et-Marcamps,15,,557684444,557683840,prignac-marcamps@orange.fr,,BDP Prignac-et-Marcamps,,,112,B,AVENUE DES CÔTES DE BOURG,,33710,PRIGNAC ET MARCAMPS,33339,15,,Oui,0,0,,0,,,,,,,, 17h00, 19h00,,, 16h00, 18h00,,,,,,, 16h30, 18h30,,,,,,,,,45.034001,-0.495872,Avenue des Cotes de Bourg 33710 Prignac-et-Marcamps,0.81,street,33339_0190_69e695,,Avenue des Cotes de Bourg,,33710,Prignac-et-Marcamps,"33, Gironde, Aquitaine",33339
2000,Saint Aubin de Médoc,32,,556702483,,mediatheque.saint-aubin@wanadoo.fr,,BDP Saint Aubin de Médoc,,,10,B,ROUTE DE GERMIGNAN,,33160,SAINT AUBIN DE MÉDOC,33376,63,,Non,0,0,,0,,,,,,,,,,,,,,,,,,,,,,,,,,,,,,44.911505,-0.719133,Route de Germignan 33160 Saint-Aubin-de-Médoc,0.82,street,33376_0347_386465,,Route de Germignan,,33160,Saint-Aubin-de-Médoc,"33, Gironde, Aquitaine",33376
1794,Saint-Vincent-de-Paul,27,,556775660,556388556,mairie.svp33@wanadoo.fr,,BDP Saint-Vincent-de-Paul,,,,,AVENUE GUSTAVE EIFFEL,,33440,SAINT VINCENT DE PAUL,33487,19,,Oui,0,0,,0,Accès aux personnes à mobilité réduite,,,,,,,,,,,,,,,,,,, 15h00, 17h00,,,,,,,,,44.947799,-0.468764,Avenue Gustave Eiffel 33440 Saint-Vincent-de-Paul,0.91,street,33487_0035_217c9d,,Avenue Gustave Eiffel,,33440,Saint-Vincent-de-Paul,"33, Gironde, Aquitaine",33487
1099,Teuillac,26,,557643455,557642225,accueil@mairie-teuillac.com,,BDP Teuillac,,,,,PLACE DE LA MAIRIE,,33710,TEUILLAC,33530,15,,Oui,0,0,,0,Accès aux personnes à mobilité réduite,,, 15h30, 16h30,,,,,,,,,,,,,,,,,09h00, 12h00,,,,,,,45.10246,-0.540918,La Grande Pièce 33710 Teuillac,0.48,locality,33530_B036_34743d,,La Grande Pièce,,33710,Teuillac,"33, Gironde, Aquitaine",33530
1502,Saint-Antoine-sur-l'Isle,20,,557496219,557496219,mairiedestantoinesurlisle@wanadoo.fr,,BDP Saint-Antoine-sur-l'Isle,,,648,,RUE DE VERDUN,,33660,SAINT ANTOINE SUR L ISLE,33373,22,,Oui,1,2,,0,Accès aux personnes à mobilité réduite,,,,,,,,,09h00, 12h00,,,,,,,,,,,09h00, 12h00,,,,,,,45.026822,0.03892,648 Rue de Verdun 33660 Saint-Antoine-sur-l'Isle,0.91,housenumber,ADRNIVX_0000000311881010,648,Rue de Verdun,,33660,Saint-Antoine-sur-l'Isle,"33, Gironde, Aquitaine",33373
1394,Lacanau Océan,10,,556031726,,biblio.ocean@mairie-lacanau.fr,,BDP Lacanau Océan,,,8,,AVENUE DE LA LIBÉRATION,,33680,LACANAU,33214,20,,Oui,1,0,,0,,,, 16h00, 18h30,,,,,10h00, 12h30,,,,, 16h00, 18h30,,,,,10h00, 12h30,,,,,,,44.978173,-1.07823,8 Avenue de la Libération 33680 Lacanau,0.91,housenumber,ADRNIVX_0000000354007749,8,Avenue de la Libération,,33680,Lacanau,"33, Gironde, Aquitaine",33214
1763,Isle-Saint-Georges,20,,556726504,556727507,bibliotheque.isg@orange.fr,http://www.islesaintgeorges.com,BDP Isle-Saint-Georges,,,14,,PLACE DE L'ÉGLISE,,33640,ISLE SAINT GEORGES,33206,27,,Oui,0,0,,0,Accès aux personnes à mobilité réduite,,, 17h00, 18h30,,,,,,, 17h00, 19h00,,,,,,,,,,,,,,,,,44.724939,-0.472363,14 Place de l'Église 33640 Isle-Saint-Georges,0.91,housenumber,ADRNIVX_0000000276461717,14,Place de l'Église,,33640,Isle-Saint-Georges,"33, Gironde, Aquitaine",33206
1160,Bieujac,19,,05-56-62-82-5,556627655,bibliotheque-bieujac@cc-paysdelangon.fr,http://www.bibliotheques-paysdelangon.net,BDP Bieujac,,,5,,VIGNEAU,,33210,BIEUJAC,33050,28,,Oui,1,0,,0,,,,,,,,,,,,,,,,,,,,,,,, 14h00, 16h00,,,,,44.538782,-0.155293,5 Vigneau 33210 Bieujac,0.91,housenumber,ADRNIVX_0000000276593805,5,Vigneau,,33210,Bieujac,"33, Gironde, Aquitaine",33050
1997,Bordeaux,32,,556103000,556103090,,http://bibliotheque.bordeaux.fr/,BDP Bordeaux,,,85,,COURS DU MARÉCHAL JUIN,,33075,BORDEAUX,33063,99,,Non,0,0,,0,Accès aux personnes à mobilité réduite,,,,,,,,,,,,,,,,,,,,,,,,,,,,,,,,,,,,,,,,,
1619,Le Porge,22,,556036331,556265921,leporgebiblio33@gmail.com,,BDP Le Porge,,,1,,PLACE SAINT SEURIN,,33680,LE PORGE,33333,20,,Oui,0,0,,0,,,,,,,,,,,,,,,,,,,,,,,,,,,,,,44.872837,-1.093014,1 Place Saint-Seurin 33680 Le Porge,0.91,housenumber,ADRNIVX_0000000276145600,1,Place Saint-Seurin,,33680,Le Porge,"33, Gironde, Aquitaine",33333
1085,Langon,12,,556623339,556622855,bibliotheque-langon@cc-paysdelangon.fr,http://www.bibliotheques-paysdelangon.net/,BDP Langon,,,,,-22 COURS DU MARÉCHAL DE LATTRE DE TASSIGNY,,33210,LANGON,33227,28,,Oui,1,3,,0,,,,,,09h00, 12h00, 12h00, 16h30,09h00, 12h00, 12h00, 18h00,09h00, 12h00, 12h00, 16h30,09h00, 12h00, 12h00, 16h30,09h30, 12h30,,,,,,,44.551996,-0.24532,22 Cours du Maréchal de Lattre de Tassigny 33210 Langon,0.92,housenumber,ADRNIVX_0000000276586155,22,Cours du Maréchal de Lattre de Tassigny,,33210,Langon,"33, Gironde, Aquitaine",33227
1719,Saint-Sulpice-et-Cameyrac,17,,556302304,,bibliotheque-municipale16@wanadoo.fr,,BDP Saint-Sulpice-et-Cameyrac,,,15,,AVENUE MAUCAILLOU,,33450,SAINT SULPICE ET CAMEYRAC,33483,19,,Oui,1,1,,0,,,,,,,,,,,, 15h00, 18h00,,, 17h00, 19h00,,,,,10h00, 12h00,,,,,,,44.911453,-0.393215,15 Avenue de Maucaillou 33450 Saint-Sulpice-et-Cameyrac,0.86,housenumber,ADRNIVX_0000000276118215,15,Avenue de Maucaillou,,33450,Saint-Sulpice-et-Cameyrac,"33, Gironde, Aquitaine",33483
1715,Saint-Caprais-de-Bordeaux,10,,557979417,557979401,mediatheque.stcapraisdebx@gmail.com,,BDP Saint-Caprais-de-Bordeaux,,,4,,AVENUE DE MERCADE,,33880,SAINT CAPRAIS DE BORDEAUX,33381,23,,Oui,0,0,,0,Accès aux personnes à mobilité réduite,,, 16h30, 18h30,,, 16h30, 18h30,09h30, 12h00,,,,, 16h30, 18h30,,, 16h30, 18h30,,,,,,,,,44.750552,-0.436618,4 Avenue de Mercade 33880 Saint-Caprais-de-Bordeaux,0.91,housenumber,ADRNIVX_0000000276442104,4,Avenue de Mercade,,33880,Saint-Caprais-de-Bordeaux,"33, Gironde, Aquitaine",33381
1762,Le Teich,17,,556226122,556223361,ville.du.teich@leteich.com,,BDP Le Teich,,,64,B,AVENUE CÔTE D'ARGENT,,33470,LE TEICH,33527,49,,Oui,1,0,,0,Accès aux personnes à mobilité réduite,,,,,,, 14h00, 19h00,,, 15h00, 18h00,,,,,10h00, 12h00,,,10h00, 12h00,,,,,,,44.63564,-1.02253,64 BIS Avenue de la Côte d'Argent 33470 Le Teich,0.73,housenumber,ADRNIVX_0000000276521291,64 BIS,Avenue de la Côte d'Argent,,33470,Le Teich,"33, Gironde, Aquitaine",33527
1637,Saint-Sulpice-de-Faleyrens,21,,681100682,557246374,bib@juridiction-saint-emilion.org,,BDP Saint-Sulpice-de-Faleyrens,,,10,,AVENUE DU GÉNÉRAL DE GAULLE,,33330,SAINT SULPICE DE FALEYRENS,33480,30,,Oui,0,0,,0,,,,,,,,,,,, 15h30, 18h30,,,,,,,,,,,,,,,,,44.876254,-0.190427,10 Avenue du Général de Gaulle 33330 Saint-Sulpice-de-Faleyrens,0.91,housenumber,ADRNIVX_0000000276187537,10,Avenue du Général de Gaulle,,33330,Saint-Sulpice-de-Faleyrens,"33, Gironde, Aquitaine",33480
1660,Targon,9,,556236937,,bibliotheque.targon@wanadoo.fr,,BDP Targon,,,10,,PLACE DE L'ÉGLISE,,33760,TARGON,33523,48,,Oui,1,1,,0,Accès aux personnes à mobilité réduite,10h00, 12h00, 15h00, 16h30,,, 14h30, 16h30,,, 14h30, 18h00,,,,,,, 14h30, 16h30,09h30, 12h30,,,,,,,44.734503,-0.263018,10 Place de l'Église 33760 Targon,0.92,housenumber,ADRNIVX_0000000354324147,10,Place de l'Église,,33760,Targon,"33, Gironde, Aquitaine",33523
1705,Le Taillan-Médoc,12,,556356096,556355061,bibliotheque@taillan-medoc.fr,http://bibtm.canalblog.com/,BDP Le Taillan-Médoc,,,56,,AVENUE DE SOULAC,,33320,LE TAILLAN MÉDOC,33519,63,,Oui,1,2,,0,Accès aux personnes à mobilité réduite,,,,,,, 15h00, 18h00,10h00, 12h00, 12h00, 18h00,,,,,,, 15h00, 19h00,10h00, 12h00, 12h00, 16h00,,,,,44.906207,-0.668918,56 Avenue de Soulac 33320 Le Taillan-Médoc,0.92,housenumber,ADRNIVX_0000000332777010,56,Avenue de Soulac,,33320,Le Taillan-Médoc,"33, Gironde, Aquitaine",33519
1944,Saint-Morillon,15,,556784989,556784855,bibliotheque.saint-morillon@sfr.fr,,BDP Saint-Morillon,,,1,,ROUTE DE SAINT MICHEL DE RIEUFRET,,33650,SAINT MORILLON,33454,27,,Oui,1,1,,0,,,,,,,, 16h00, 18h00,,,,,,,,,,,,,,, 16h00, 18h00,,,,,44.64925,-0.502963,1 Route de Saint-Michel de Rieufret 33650 Saint-Morillon,0.91,housenumber,ADRNIVX_0000000324884872,1,Route de Saint-Michel de Rieufret,,33650,Saint-Morillon,"33, Gironde, Aquitaine",33454
1307,Beychac-et-Cailleau,9,,556724712,556728989,mediatheque@beychac-cailleau.fr,,BDP Beychac-et-Cailleau,,,,,BOURG DE CAILLEAU,,33750,BEYCHAC ET CAILLEAU,33049,55,,Oui,1,3,,3,accès aux personnes à mobilité réduite,,,,,,, 16h30, 18h30,,, 14h00, 18h30,,, 17h00, 18h00,,,,,10h00, 12h30,,,,,,,,,,,,,,,,,,,
1659,Rions,15,,951379382,,bibliorions@free.fr,http://biblirions.canalblog.com/,BDP Rions,,,1,,CHEMIN DES SOEURS,,33410,RIONS,33355,17,,Oui,1,0,,0,,,,,,,,,,,, 15h00, 18h30,,,,,,, 16h00, 18h00,,, 15h30, 18h00,,,,,44.666961,-0.354461,Chemin des Trois Soeurs 33410 Rions,0.71,street,33355_0062_b6895f,,Chemin des Trois Soeurs,,33410,Rions,"33, Gironde, Aquitaine",33355
1684,La Lande-de-Fronsac,21,,557581243,557582323,bibliothequemicheliturria@orange.fr,,BDP La Lande-de-Fronsac,,,169,,RUE DES TEMPLIERS,,33240,LA LANDE DE FRONSAC,33219,24,,Oui,1,1,,0,Accès aux personnes à mobilité réduite,,, 13h30, 16h30,,, 16h30, 18h00,10h00, 12h00, 14h00, 17h00,,, 13h30, 16h30,,, 16h13, 16h30,,,,,,,,,44.979013,-0.38345,169 Route des Templiers 33240 La Lande-de-Fronsac,0.8,housenumber,ADRNIVX_0000000276059354,169,Route des Templiers,,33240,La Lande-de-Fronsac,"33, Gironde, Aquitaine",33219
1459,Saint-Symphorien,3,,556257289,556650114,bibliotheque.stsymphorien@wanadoo.fr,,BDP Saint-Symphorien,,,,,PLACE DE LA RÉPUBLIQUE,,33113,SAINT SYMPHORIEN,33484,45,,Oui,1,7,,7,Accès aux personnes à mobiblité réduite,,,,,,, 16h00, 18h00,10h00, 12h00, 14h00, 18h00,,,,,,, 16h00, 18h00,09h00, 12h00,,,,,,,44.427769,-0.490433,Place de la République 33113 Saint-Symphorien,0.92,street,33484_0235_cc4729,,Place de la République,,33113,Saint-Symphorien,"33, Gironde, Aquitaine",33484
1579,Saint-Hilaire-de-la-Noaille,19,,556710009,556710237,saint-hilaire-novaliamedias@wanadoo.fr,,BDP Saint-Hilaire-de-la-Noaille,,,6,,LE PONT,,33190,SAINT HILAIRE DE LA NOAILLE,33418,38,,Oui,1,4,,0,,,,,,,,,,,, 16h30, 18h30,,,,,,,,,,, 14h00, 16h00,,,,,44.60382,-0.002828,6 Le Pont 33190 Saint-Hilaire-de-la-Noaille,0.91,housenumber,ADRNIVX_0000000276558546,6,Le Pont,,33190,Saint-Hilaire-de-la-Noaille,"33, Gironde, Aquitaine",33418
1999,Monségur,9,,556719062,,bibliotheque.monsegur@orange.fr,,BDP Monségur,,,10,,PLACE DES TILLEULS,,33580,MONSÉGUR,33289,32,,Oui,1,0,,0,,,,,,,,,,10h00, 12h00, 14h00, 19h00,,,,,09h30, 13h00, 16h00, 19h00,09h30, 13h00,,,,,,,44.648583,0.077002,10 Place des Tilleuls 33580 Monségur,0.92,housenumber,ADRNIVX_0000000276540723,10,Place des Tilleuls,,33580,Monségur,"33, Gironde, Aquitaine",33289
1792,Mazères,20,,556761406,556761406,bibliotheque-mazeres@cc-paysdelangon.fr,http://www.bibliotheques-paysdelangon.net,BDP Mazères,,,,,LE BOURG,,33210,MAZÈRES,33279,28,,Oui,1,0,,0,,,,,,,,,,,,,,,,,,,,,,10h00, 11h30,,,,,,,44.494516,-0.259312,Le Bourg 33210 Mazères,0.91,locality,33279_B012_5d80e5,,Le Bourg,,33210,Mazères,"33, Gironde, Aquitaine",33279
1654,Naujac-sur-Mer,26,,556730055,556730387,mairie.naujac@wanadoo.fr,,BDP Naujac-sur-Mer,,,,,LE BOURG,,33990,NAUJAC SUR MER,33300,29,,Non,0,0,,0,,,,,,,,,,,,,,,,,,,,,,,,,,,,,,45.256168,-1.022503,Le Bourg 33990 Naujac-sur-Mer,0.91,locality,33300_B021_9ccb8a,,Le Bourg,,33990,Naujac-sur-Mer,"33, Gironde, Aquitaine",33300
1468,Saint-Seurin-sur-l'Isle,4,,557496193,557496345,mediatheque@stseurinsurlisle.com,http://www.mediatheque.stseurinsurlisle.com,BDP Saint-Seurin-sur-l'Isle,,,4,,AVENUE GEORGES CLÉMENCEAU,,33660,SAINT SEURIN SUR L ISLE,33478,31,,Oui,1,6,,6,,,,,,,, 14h00, 18h00,10h00, 12h30, 14h00, 19h00,,,,,,, 14h00, 18h00,10h00, 12h30, 14h00, 18h00,,,,,45.0147,-0.000848,4 Avenue Georges Clemenceau 33660 Saint-Seurin-sur-l'Isle,0.91,housenumber,ADRNIVX_0000000337456762,4,Avenue Georges Clemenceau,,33660,Saint-Seurin-sur-l'Isle,"33, Gironde, Aquitaine",33478
2002,Ambarès et Lagrave,32,,557801520,557801521,bibliotheque@ville-ambaresetlagrave.fr,http://www.ville-ambaresetlagrave.fr/,BDP Ambarès et Lagrave,,,9,,RUE EDMOND FAULAT,,33440,AMBARÈS ET LAGRAVE,33003,19,,Non,0,0,,0,,,,,,,,,,,,,,,,,,,,,,,,,,,,,,44.925334,-0.488512,9 Rue Edmond Faulat 33440 Ambarès-et-Lagrave,0.92,housenumber,ADRNIVX_0000000276092892,9,Rue Edmond Faulat,,33440,Ambarès-et-Lagrave,"33, Gironde, Aquitaine",33003
1192,Saint-Pierre-de-Mons,21,,556630711,556761259,bibliotheque-saintpey@cc-paysdelangon.fr,http://www.bibliotheques-paysdelangon.net,BDP Saint-Pierre-de-Mons,,,4,,RUE ROUSSEAU,,33210,SAINT PIERRE DE MONS,33465,28,,Oui,1,0,,0,,,,,,,, 16h30, 18h00,,,,,,,,,,,,,,, 14h30, 16h00,,,,,44.55131,-0.223726,4 Au Rousseau 33210 Saint-Pierre-de-Mons,0.76,housenumber,ADRNIVX_0000000276587497,4,Au Rousseau,,33210,Saint-Pierre-de-Mons,"33, Gironde, Aquitaine",33465
1172,Fargues,21,,556634270,,bibliotheque-fargues@cc-paysdelangon.fr,http://www.bibliotheques-paysdelangon.net,BDP Fargues,,,7,,ROUTE DES ÉCOLES,,33210,FARGUES,33164,28,,Oui,1,0,,0,,,,,,,,,,,, 15h00, 17h00,,,,,,,,,,, 15h00, 17h00,,,,,44.536138,-0.295594,7 Route des Écoles 33210 Fargues,0.91,housenumber,ADRNIVX_0000000276593916,7,Route des Écoles,,33210,Fargues,"33, Gironde, Aquitaine",33164
1182,Saint-André-du-Bois,19,,556769785,556764308,mairie.saint.andredubois@wanadoo.fr,,BDP Saint-André-du-Bois,,,36,,LE BOURG SUD,,33490,SAINT ANDRÉ DU BOIS,33367,43,,Oui,0,0,,0,Accès aux personnes à mobilité réduite,,,,,,,,,,,,,,,,,,, 16h00, 18h00,,,,,,,,,44.6045,-0.182801,Le Bourg Sud 33490 Saint-André-du-Bois,0.84,locality,33367_B012_c57f18,,Le Bourg Sud,,33490,Saint-André-du-Bois,"33, Gironde, Aquitaine",33367
1009,Mios,23,,556264940,556264169,bibliotheque.municipale.mios@orange.fr,,BDP Mios,,,9,,RUE SAINT JEAN,,33380,MIOS,33284,2,,Oui,0,0,,0,Accès aux personnes à mobilité réduite,,,,,,,,,09h30, 11h30,,,,,,,,,,,09h30, 11h30,,,,,,,44.60444,-0.937858,Rue Saint-Jean 33380 Mios,0.84,street,33284_0152_b164d6,,Rue Saint-Jean,,33380,Mios,"33, Gironde, Aquitaine",33284
1098,Lesparre-Médoc,17,,556418066,556415849,bib.coeurmedoc@wanadoo.fr,,BDP Lesparre-Médoc,,,37,,COURS DU MARÉCHAL DE LATTRE DE TASSIGNY,,33340,LESPARRE MÉDOC,33240,29,,Oui,1,0,,0,,,,,,09h00, 12h00, 15h00, 18h00,09h00, 12h00, 15h00, 18h00,,,,,09h00, 12h00, 15h00, 18h00,09h00, 12h00, 15h00, 18h00,,,,,45.305575,-0.936091,37 Cours du Maréchal de Lattre de Tassigny 33340 Lesparre-Médoc,0.93,housenumber,ADRNIVX_0000000275911560,37,Cours du Maréchal de Lattre de Tassigny,,33340,Lesparre-Médoc,"33, Gironde, Aquitaine",33240
2009,Talence,32,,556847890,556847889,mediatheque@talence.fr,http://www.talence.fr/,BDP Talence,,,1,,ALLÉE PEIXOTTO,,33400,TALENCE,33522,56,,Non,0,0,,0,Accès aux personnes à mobilité réduite,,,,,,,,,,,,,,,,,,,,,,,,,,,,,44.800346,-0.593546,1 Allée des Peupliers 33400 Talence,0.5,housenumber,ADRNIVX_0000000276361976,1,Allée des Peupliers,,33400,Talence,"33, Gironde, Aquitaine",33522
3333,Saint-Martin-Lacaussade,21,,,557422122,bibliotheque.stmartinlacaussade@orange.fr,,BDP Saint-Martin-Lacaussade,,,1,,CHEMIN DES LAURIERS,,33390,SAINT MARTIN LACAUSSADE,33441,7,,Oui,0,1,,0,,,, 15h00, 17h30,,,,,,, 15h00, 17h30,,,,,,,,,,,,,,,,,45.145346,-0.642248,1 Chemin des Lauriers 33390 Saint-Martin-Lacaussade,0.91,housenumber,ADRNIVX_0000000326930654,1,Chemin des Lauriers,,33390,Saint-Martin-Lacaussade,"33, Gironde, Aquitaine",33441
1703,Saint-Yzan-de-Soudiac,15,,09 61 34 75 1,,bibliotheque.st-yzandesoudiac@wanadoo.fr,,BDP Saint-Yzan-de-Soudiac,,,,,CHEMIN DE FAUCHARD,,33920,SAINT YZAN DE SOUDIAC,33492,44,,Oui,1,1,,0,,,,,,,,,,10h00, 12h00, 14h00, 17h00,,, 16h30, 17h30,,,,,,,,,,,,,45.14134,-0.409561,Chemin de Fauchard 33920 Saint-Yzan-de-Soudiac,0.91,street,33492_XXXX_fef357,,Chemin de Fauchard,,33920,Saint-Yzan-de-Soudiac,"33, Gironde, Aquitaine",33492
1628,Margueron,13,,557412300,557413855,margueron.pointlecture@orange.fr,,BDP Margueron,,,,,LA TUQUETTE,,33220,MARGUERON,33269,41,,Oui,0,0,,0,Accés aux personnes à mobilité réduite,,, 17h00, 18h30,,,,,,, 14h00, 15h00,,,,,,, 16h30, 18h00,,,,,,,,,44.762559,0.251205,La Tuquette Ouest 33220 Margueron,0.74,locality,33269_B125_e896e3,,La Tuquette Ouest,,33220,Margueron,"33, Gironde, Aquitaine",33269
1473,Naujan-et-Postiac,20,,557845577,557749252,m.jp.bessaudou@orange.fr,,BDP Naujan-et-Postiac,,,28,,ROUTE DE BORDEAUX,,33420,NAUJAN ET POSTIAC,33301,16,,Oui,1,1,,0,Accès aux personnes à mobilité réduite,,,,,,,,,,, 15h00, 18h00,,,,,,,,,10h30, 12h30,,,,,,,44.789039,-0.183709,28 Route de Bordeaux 33420 Naujan-et-Postiac,0.91,housenumber,ADRNIVX_0000000276396092,28,Route de Bordeaux,,33420,Naujan-et-Postiac,"33, Gironde, Aquitaine",33301
1663,Les Églisottes-et-Chalaures,21,,557693707,557495286,bibliothequeleseglisottes@orange.fr,,BDP Les Églisottes-et-Chalaures,,,38,,AVENUE VICTOR HUGO,,33230,LES ÉGLISOTTES ET CHALAURES,33154,22,,Oui,1,3,,0,Accès aux personnes à mobilité réduite,,,,,,, 14h00, 18h00,09h00, 12h00, 14h00, 18h00,,, 14h00, 18h00,09h00, 12h00, 14h00, 18h00,09h00, 12h00, 14h00, 18h00,,,,,45.098131,-0.039996,38 Avenue Victor Hugo 33230 Les Églisottes-et-Chalaures,0.91,housenumber,ADRNIVX_0000000275977273,38,Avenue Victor Hugo,,33230,Les Églisottes-et-Chalaures,"33, Gironde, Aquitaine",33154
1155,Auros,20,,556654009,556654459,contact@bibliotheque-auros.com,http://www.bibliotheque-auros.com,BDP Auros,,,,,LE BOURG,,33124,AUROS,33021,3,,Oui,0,0,,0,Accès aux personnes à mobilité réduite,,,,,,,,,,,,,,,,,,,,,,, 16h00, 18h00,,,,,44.492891,-0.14618,Le Bourg-Sud 33124 Auros,0.76,locality,33021_B022_a39d6c,,Le Bourg-Sud,,33124,Auros,"33, Gironde, Aquitaine",33021
1652,Grayan-et-l'Hôpital,8,,556095829,556095473,bibliothequegrayan@wanadoo.fr,http://bibliothequegrayan.blogspot.fr/,BDP Grayan-et-l'Hôpital,,,,,RUE DES GOËLANDS,,33590,GRAYAN ET L HÔPITAL,33193,46,,Oui,1,1,,0,Accès aux personnes à mobilité réduite,10h30, 12h30,,,,,,,10h30, 12h00,,,,, 16h00, 18h30,,,,,,, 14h30, 17h00,,,,,45.443556,-1.088801,Rue des Goélands 33590 Grayan-et-l'Hôpital,0.91,street,33193_0167_5d72b4,,Rue des Goélands,,33590,Grayan-et-l'Hôpital,"33, Gironde, Aquitaine",33193
1743,Izon,16,,557554968,557554969,bibliotheque.izon@orange.fr,,BDP Izon,,,207,,AVENUE DU GÉNÉRAL DE GAULLE,,33450,IZON,33207,30,,Oui,1,1,,0,Accès aux personnes à mobilité réduite,,,,,,, 16h00, 17h30,10h00, 12h00, 14h00, 17h00,10h30, 11h30,,,,, 16h00, 17h30,10h00, 12h00,,,,,,,44.920734,-0.369391,207 Avenue du Général de Gaulle 33450 Izon,0.91,housenumber,ADRNIVX_0000000276101242,207,Avenue du Général de Gaulle,,33450,Izon,"33, Gironde, Aquitaine",33207
2043,Saint Sauveur Médoc,0,,556595713,,,,BDP Saint Sauveur Médoc,,,,,PLACE DU 19 MARS 1962,,33250,SAINT SAUVEUR MÉDOC,,,,Oui,0,0,,0,,,,,,,,,,,,,,,,,,,,,,,,,,,,,,,,,,,,,,,,,,
2017,Arcachon,32,,556225847,557527099,bibliotheque@ville-arcachon.fr,http://www.arcachon.fr/,BDP Arcachon,,,51,,COURS TARTAS,,33120,ARCACHON,33009,1,,Non,0,0,,0,,,,,,,,,,,,,,,,,,,,,,,,,,,,,,44.660708,-1.174335,51 Cours Tartas 33120 Arcachon,0.93,housenumber,ADRNIVX_0000000354005226,51,Cours Tartas,,33120,Arcachon,"33, Gironde, Aquitaine",33009
1724,Bouliac,16,,556209404,557971828,bibliothequemairiebouliac@wanadoo.fr,http://www.ville-bouliac.fr/cult-bibliotheque.htm,BDP Bouliac,,,,,PARC DE VIALLE,,33270,BOULIAC,33065,58,,Oui,1,2,,0,Accès aux personnes à mobilité réduite,09h00, 12h00, 14h30, 17h30,09h00, 12h00, 14h30, 17h30,09h00, 12h00, 14h30, 17h30,09h00, 12h00, 14h30, 17h30,09h00, 12h00, 14h30, 17h30,10h00, 12h30,,,,,,,44.816951,-0.504399,Parc de Vialle 33270 Bouliac,0.91,street,33065_XXXX_824456,,Parc de Vialle,,33270,Bouliac,"33, Gironde, Aquitaine",33065
1742,Beautiran,16,,556675483,556672633,bibliotheque@mairie-beautiran.fr,,BDP Beautiran,,,12,,PLACE DE VERDUN,,33640,BEAUTIRAN,33037,27,,Oui,0,0,,0,Accès aux personnes à mobilité réduite,,, 17h00, 19h30,,,,,,, 16h00, 18h00,,, 17h00, 19h00,,,,,,,,,,,,,44.704416,-0.448729,12 Place de Verdun 33640 Beautiran,0.91,housenumber,ADRNIVX_0000000276477461,12,Place de Verdun,,33640,Beautiran,"33, Gironde, Aquitaine",33037
1753,Castres-Gironde,16,,556674787,556670829,bibliotheque.castres@free.fr,,BDP Castres-Gironde,,MAIRIE,1,,PLACE DE LA MAIRIE,,33640,CASTRES GIRONDE,33109,27,JEANTET Catherine,Oui,1,0,,0,,,,,,,,,,10h00, 12h00, 17h00, 19h00,10h00, 12h00,,,,,,,10h00, 12h00,,,,,,,44.69671,-0.445169,Place de la Mairie 33640 Castres-Gironde,0.87,street,33109_6000_188303,,Place de la Mairie,,33640,Castres-Gironde,"33, Gironde, Aquitaine",33109
1525,Porchères,26,,557496152,557496980,mairie-porcheres@wanadoo.fr,,BDP Porchères,,,1,,LE BOURG,,33660,PORCHÈRES,33332,22,,Oui,0,0,,0,,,,,,,,,,,,,,,,,,,,,,,,,,,,,,45.029222,0.010729,1 Le Bourg 33660 Porchères,0.91,housenumber,ADRNIVX_0000000276027607,1,Le Bourg,,33660,Porchères,"33, Gironde, Aquitaine",33332
1071,Lugos,26,,557719526,557719452,seouze@neuf.fr,,BDP Lugos,,MAIRIE,,B,,,33830,LUGOS,33260,5,VALIN Christiane,Non,0,0,,0,,,,,,,,,,,,,,,,,,,,,,,,,,,,,,44.479667,-0.870562,Brana 33830 Lugos,0.59,locality,33260_B014_ce6958,,Brana,,33830,Lugos,"33, Gironde, Aquitaine",33260
2016,Libourne,32,,557553350,557555703,mediatheque@mairie-libourne.fr,ville-libourne.fr,BDP Libourne,,,,,PLACE DES RÉCOLLETS,,33500,LIBOURNE,33243,30,,Non,0,0,,0,,,,,,,,,,,,,,,,,,,,,,,,,,,,,,44.896248,-0.232403,Rue des Réaux 33500 Libourne,0.51,street,33243_1204_c233e6,,Rue des Réaux,,33500,Libourne,"33, Gironde, Aquitaine",33243
2003,Bruges,32,,556575732,556168099,,,BDP Bruges,,,87,,AVENUE CHARLES DE GAULLE,,33520,BRUGES,33075,54,,Non,0,0,,0,,,,,,,,,,,,,,,,,,,,,,,,,,,,,,44.881334,-0.61314,87 Avenue Charles de Gaulle 33520 Bruges,0.92,housenumber,ADRNIVX_0000000276156202,87,Avenue Charles de Gaulle,,33520,Bruges,"33, Gironde, Aquitaine",33075
1556,Hure,25,,556610613,556612480,mairie.hure@wanadoo.fr,,BDP Hure,,MAIRIE,,B,,,33190,HURE,33204,38,VIGNAU Isabelle,Non,0,0,,0,Accès aux personnes à mobilité réduite,,,,,,,,,,,,,,,,,,,,,,,,,,,,,44.535598,-0.017951,Bazas 33190 Hure,0.57,locality,33204_B005_0791ef,,Bazas,,33190,Hure,"33, Gironde, Aquitaine",33204
1371,Pujols,20,,557405816,557407019,pujols.mairie@wanadoo.fr,,BDP Pujols,,,,,CHÂTEAU,,33350,PUJOLS SUR DORDOGNE,33344,37,,Oui,0,0,,0,,,,,,,,,,,, 14h30, 16h00,,,,,,,,,11h00, 12h00,,,,,,,44.807528,-0.030387,Route du Château 33350 Pujols,0.46,street,33344_0015_036df5,,Route du Château,,33350,Pujols,"33, Gironde, Aquitaine",33344
1730,Braud-et-Saint-Louis,9,,557326737,557426092,mediatheque-braud@orange.fr,www.mairie-braud.com,BDP Braud-et-Saint-Louis,,,15,,AVENUE DE LA RÉPUBLIQUE,,33820,BRAUD ET SAINT LOUIS,33073,40,,Oui,1,1,,0,Accès aux personnes à mobilité réduite,,,,,08h00, 12h00, 14h00, 18h00,08h00, 12h00, 14h00, 18h00,08h00, 12h00, 14h00, 18h00,08h00, 12h00, 14h00, 18h00,09h00, 12h00,,,,,,,45.245494,-0.626579,15 Avenue de la République 33820 Braud-et-Saint-Louis,0.91,housenumber,ADRNIVX_0000000275925558,15,Avenue de la République,,33820,Braud-et-Saint-Louis,"33, Gironde, Aquitaine",33073
1681,Coutras,18,,557490149,557560904,mediatheque@mairie-coutras.fr,,BDP Coutras,,,15,,RUE SAINT JEAN,,33230,COUTRAS,33138,22,,Oui,1,1,,1,Accès aux personnes à mobilité réduite,,,,,,, 14h00, 18h00,09h00, 12h00, 14h00, 18h00,,, 14h00, 18h00,09h00, 12h00,,,09h00, 12h00, 14h00, 17h00,,,,,45.041128,-0.129772,Rue Saint-Jean 33230 Coutras,0.83,street,33138_0840_e59b03,,Rue Saint-Jean,,33230,Coutras,"33, Gironde, Aquitaine",33138
1181,Roaillan,21,,556761446,556761795,bibliotheque-roaillan@cc-paysdelangon.fr,http://www.bibliotheques-paysdelangon.net,BDP Roaillan,,,,,LE BOURG,,33210,ROAILLAN,33357,28,,Oui,0,0,,0,,,, 17h30, 19h00,,,,,10h00, 11h30,,,,,,,,,,,,,,,,,,,44.499466,-0.282988,Le Bourg 33210 Roaillan,0.91,locality,33357_B012_5d80e5,,Le Bourg,,33210,Roaillan,"33, Gironde, Aquitaine",33357
666,Le Tourne,14,,556670261,,bibletourne@gmail.com,,BDP Le Tourne,,,2,,CHEMIN DE PEYROUTIE,,33550,LE TOURNE,33534,23,,Oui,0,0,,0,,,,,,,, 16h30, 18h30,10h00, 12h00,,,,,,,,,,,10h00, 12h00,,,,,,,44.711083,-0.402685,2 Chemin de Peyroutic 33550 Le Tourne,0.81,housenumber,ADRNIVX_0000000276473439,2,Chemin de Peyroutic,,33550,Le Tourne,"33, Gironde, Aquitaine",33534
1603,Loupiac,26,,556629997,,acsosloupiac@neuf.fr,,BDP Loupiac,,,54,,BERTHOUMIEU,,33410,LOUPIAC,33253,17,,Oui,0,0,,0,,,,,,,,,,,,,,,,,,,,,,10h00, 12h00,,,,,,,44.627582,-0.297469,Berthoumieu 33410 Loupiac,0.81,locality,33253_B009_b3a7f7,,Berthoumieu,,33410,Loupiac,"33, Gironde, Aquitaine",33253
1727,Paillet,15,,556721623,,bibliothequedepaillet@wanadoo.fr,,BDP Paillet,,,,,PLACE DU GÉNÉRAL DE GAULLE,,33550,PAILLET,33311,17,,Oui,1,2,,0,,,, 15h00, 18h30,,,,,,, 15h00, 17h00,,,,,,,,,,, 15h00, 17h00,,,,,,,,,,,,,,,,,
1736,Saint-Martial,25,,556764293,556764506,mairiedestmartial@wanadoo.fr,,BDP Saint-Martial,,,6,,LE BOURG,,33490,SAINT MARTIAL,33440,43,,Oui,0,0,,0,Accès aux personnes à mobilité réduite,,,,,,,,,,,,,,,,,,,,,,,,,,,,,44.637487,-0.175347,Le Bourg Sud 33490 Saint-Martial,0.74,locality,33440_B023_c57f18,,Le Bourg Sud,,33490,Saint-Martial,"33, Gironde, Aquitaine",33440
1372,Rauzan,21,,557841304,557840071,mairie.rauzan@wanadoo.fr,,BDP Rauzan,,MAIRIE,,B,,,33420,RAUZAN,33350,37,LE NAOUR Danièle,Oui,0,0,,0,Accés aux personnes à mobilité réduite,,,,,,,,,10h30, 11h30,,,,,,,,,,,10h30, 11h30,,,,,,,44.789038,-0.138511,Taris 33420 Rauzan,0.61,locality,33350_B058_cb9869,,Taris,,33420,Rauzan,"33, Gironde, Aquitaine",33350
1661,Loupiac-de-la-Réole,25,,556610816,556712322,mairie-de-loupiac-de-la-reole@wanadoo.fr,,BDP Loupiac-de-la-Réole,,MAIRIE,,,LE BOURG SUD,,33190,LOUPIAC DE LA RÉOLE,33254,38,SANQUER Catherine,Oui,0,0,,0,,,,,,,, 14h00, 17h00,,,,,,,,,,,,,09h00, 12h00,,,,,,,44.547398,-0.04515,Le Bourg Sud 33190 Loupiac-de-la-Réole,0.91,locality,33254_B031_f91bfd,,Le Bourg Sud,,33190,Loupiac-de-la-Réole,"33, Gironde, Aquitaine",33254
1688,Gauriac,20,,557648008,557648913,mairie.gauriac@wanadoo.fr,,BDP Gauriac,,MAIRIE,40,,FRANCICOT NORD,,33710,GAURIAC,33182,15,BALDES Robert,Oui,1,0,,0,,,,,,,, 16h30, 19h30,,,,,,,,,,,,,,,,,,,,,45.063804,-0.618106,Francicot 33710 Gauriac,0.67,locality,33182_XXXX_3ab11a,,Francicot,,33710,Gauriac,"33, Gironde, Aquitaine",33182
1383,Biganos,12,,556039334,,lducos@villedebiganos.fr,http://bibliobiganos.over-blog.com/,BDP Biganos,,,,,RUE PIERRE DE COUBERTIN,,33380,BIGANOS,33051,2,,Oui,0,0,,0,,,,,,09h00, 12h00, 14h00, 17h45,09h00, 12h00, 14h00, 17h45,,,,,09h00, 12h00, 14h00, 17h45,10h00, 12h00,,,,,,,44.637692,-0.974856,Rue Pierre de Coubertin 33380 Biganos,0.91,street,33051_0229_897813,,Rue Pierre de Coubertin,,33380,Biganos,"33, Gironde, Aquitaine",33051
1177,Landiras,9,,556620715,556624869,francoise.cabannes@cc-podensac.fr,,BDP Landiras,,CDC PODENSAC-PRIMEVER ,12,,RUE DU MARÉCHAL LECLERC DE HAUTECLOCQUE,,33720,PODENSAC,33225,36,CABANNES Françoise,Non,1,0,,0,Accès aux personnes à mobilité réduite,,,,,,,,,,,,,,,,,,,,,,,,,,,,,,,,,,,,,,,,,
1518,Saillans,25,,557843210,557743814,bibliosaillans@yahoo.fr,,BDP Saillans,,MAIRIE,1,,CHAMP DE VILLARD,,33141,SAILLANS,33364,24,TERRIER Céline,Oui,0,0,,0,Accès aux personnes à mobilité réduite,,,,,,,,,,,,,,,,,,,,,,,,,,,,,44.959293,-0.277183,1 Champ de Villard 33141 Saillans,0.91,housenumber,ADRNIVX_0000000276072041,1,Champ de Villard,,33141,Saillans,"33, Gironde, Aquitaine",33364
1538,Saint-Martin-de-Laye,19,,557494044,557494044,mairie.stmartindelaye@wanadoo.fr,,BDP Saint-Martin-de-Laye,,,,,HÔTEL DE VILLE,,33910,SAINT MARTIN DE LAYE,33442,26,,Oui,0,0,,0,,,,,,,,,,,,,,,,,,,,,,10h30, 12h30,,,,,,,45.037288,-0.247053,Belle Vue 33910 Saint-Martin-de-Laye,0.68,locality,33442_B004_37bed1,,Belle Vue,,33910,Saint-Martin-de-Laye,"33, Gironde, Aquitaine",33442
1391,Saint-Selve,15,,556784978,,bibliotheque@mairie-saintselve.fr,,BDP Saint-Selve,,,,,MAISON DES ASSOCIATIONS,,33650,SAINT SELVE,33474,27,,Oui,1,0,,0,,,,,,,, 16h30, 18h30,,, 15h00, 18h00,,,,,,, 17h30, 19h00,,,,,,,,,,,,,,,,,,,,,
2020,Illats,21,,556625314,556624114,marion.roche@cc-podensac.fr,,BDP Illats,,CDC PODENSAC-PRIMEVER ,12,,RUE DU MARÉCHAL LECLERC DE HAUTECLOCQUE,,33720,PODENSAC,,36,Malsch Marie-Louise,Oui,0,0,,0,,,,,,,,,,,,,,,,,,,,,,,,,,,,,,44.649511,-0.358722,12 Rue du Maréchal Leclerc 33720 Podensac,0.66,housenumber,ADRNIVX_0000000276529772,12,Rue du Maréchal Leclerc,,33720,Podensac,"33, Gironde, Aquitaine",33327
1187,Saint-Macaire,21,,556633452,,cflorence@gmail.com,,BDP Saint-Macaire,,,10,,PLACE DE L'ÉGLISE,,33490,SAINT MACAIRE,33435,43,,Oui,0,0,,0,,,,,,,,,,,, 16h00, 18h00,,,,,,,,,,, 15h00, 17h00,,,,,44.564095,-0.225563,Place de l'Église 33490 Saint-Macaire,0.85,street,33435_0105_509940,,Place de l'Église,,33490,Saint-Macaire,"33, Gironde, Aquitaine",33435
1606,Romagne,13,,96358249,556239798,bibliothequeromagne@gmail.com,,BDP Romagne,,,30,,RUE JACQUES LONGUEVILLE,,33760,ROMAGNE,33358,48,,Oui,1,0,,0,,,,,,,, 16h30, 18h30,,,,,,, 16h30, 18h30,,,,,,,,,,,,,44.762125,-0.1941,30 Rue Jacques Longueville 33760 Romagne,0.91,housenumber,ADRNIVX_0000000276437774,30,Rue Jacques Longueville,,33760,Romagne,"33, Gironde, Aquitaine",33358
1027,Carbon-Blanc,5,,557776886,556381192,dir@mediatheque-carbon-blanc.fr,,BDP Carbon-Blanc,,,17,,AVENUE VIGNAU ANGLADE,,33564,CARBON BLANC CEDEX,33096,19,,Oui,1,6,,0,Accès aux personnes à mobilité réduite,,,,,,, 16h00, 18h30,10h00, 12h00, 12h00, 18h00,10h00, 12h30,,,,, 15h00, 18h30,09h30, 12h30,,,,,,,,,,,,,,,,,,,
