typologie;spécialité;FINESS;nom;"type handicap principal";adresse;CP;commune;"commune (COG)";département;région;"région (COG)";"longitude (X)";"latitude (Y)";marker-url;marker-size
Service;"service d'éducation spéciale et de soins à domicile";310783113;"CAP Midi-Pyrénées, antenne du Tarn-et-Garonne";"Handicap auditif";"2A rue Sadi Carnot";82000;Montauban;82121;Tarn-et-Garonne;Occitanie;76;1.36169;44.01677;http://opendata.onisep.fr/uploads/Image/39/54_801_picto_handicap_auditif_inverse.png;[32,32]
Etablissement;"Etablissement médicosocial";780800058;"Centre Claire Girard, antenne de Versailles";"Handicap moteur";"21 boulevard de la République";78000;Versailles;78646;Yvelines;Ile-de-France;11;2.147895;48.8069688;http://opendata.onisep.fr/uploads/Image/88/52_819_picto_handicap_moteur.png;[32,32]
Etablissement;"Centre d'action médico-sociale précoce";760802215;"Centre d'action médico-sociale précoce Beethoven";"Handicap auditif";"94 rue Saint-Julien";76000;Rouen;76540;Seine-Maritime;Normandie;28;1.0626000165939;49.413299560547;http://opendata.onisep.fr/uploads/Image/08/51_780_picto_handicap_auditif.png;[32,32]
Etablissement;"Centre d'action médico-sociale précoce";880006366;"Centre d'action médico-sociale précoce d'Epinal";"Handicap auditif";"42 avenue du Rose Poirier";88000;Épinal;88160;Vosges;Grand-Est;44;6.45977;48.2036;http://opendata.onisep.fr/uploads/Image/08/51_780_picto_handicap_auditif.png;[32,32]
Etablissement;"Centre d'action médico-sociale précoce";620117465;"Centre d'action médico-sociale précoce de Calais";"Handicap moteur";"35 rue Auber";62100;Calais;62193;Pas-de-Calais;Hauts-de-France;32;1.8502672;50.9458337;http://opendata.onisep.fr/uploads/Image/88/52_819_picto_handicap_moteur.png;[32,32]
Etablissement;"Centre d'action médico-sociale précoce";130799695;"Centre d'action médico-sociale précoce de l'hôpital Salvator de Marseille, section polyvalente";"Handicap moteur";"249 boulevard Sainte Marguerite";13009;Marseille;13200;Bouches-du-Rhône;"Provence-Alpes-Côte d'Azur";93;5.41157;43.263037;http://opendata.onisep.fr/uploads/Image/88/52_819_picto_handicap_moteur.png;[32,32]
Etablissement;"Centre d'action médico-sociale précoce";500019559;"Centre d'action médico-sociale précoce de Saint-Lô";"Handicap auditif";"82 rue du Neufbourg";50000;Saint-Lô;50502;Manche;Normandie;28;-1.0922889709473;49.116458892822;http://opendata.onisep.fr/uploads/Image/08/51_780_picto_handicap_auditif.png;[32,32]
Etablissement;"Centre d'action médico-sociale précoce";590791737;"Centre d'action médico-sociale précoce de Villeneuve-d'Ascq";"Handicap moteur";"4 rue Papin";59491;Villeneuve-d'Ascq;59009;Nord;Hauts-de-France;32;3.12903;50.6475;http://opendata.onisep.fr/uploads/Image/88/52_819_picto_handicap_moteur.png;[32,32]
Etablissement;"Etablissement médicosocial";930811427;"Centre d'action médico-sociale précoce Espoir 93";"Handicap auditif";"4 avenue de Verdun";93130;Noisy-le-Sec;93053;Seine-Saint-Denis;Ile-de-France;11;2.45439;48.89428;http://opendata.onisep.fr/uploads/Image/08/51_780_picto_handicap_auditif.png;[32,32]
Etablissement;"Centre d'action médico-sociale précoce";610780033;"Centre d'action médico-sociale précoce la Providence";"Handicap auditif";"103 chemin des Planches";61000;Alençon;61001;Orne;Normandie;28;0.0663526;48.4372911;http://opendata.onisep.fr/uploads/Image/08/51_780_picto_handicap_auditif.png;[32,32]
Etablissement;"Centre d'action médico-sociale précoce";690794771;"Centre d'action médico-sociale précoce pour déficients auditifs de Villeurbanne";"Handicap auditif";"158 rue du 4 août 1789";69100;Villeurbanne;69266;Rhône;Auvergne-Rhône-Alpes;84;4.8917577;45.764585;http://opendata.onisep.fr/uploads/Image/08/51_780_picto_handicap_auditif.png;[32,32]
Etablissement;"Centre d'action médico-sociale précoce";370004970;"Centre d'action médico-sociale précoce spécialisé, département d'audiophonologie";"Handicap auditif";"16 rue de la Pierre";37100;Tours;37261;Indre-et-Loire;"Centre-Val de Loire";24;0.68923002481461;47.390441894531;http://opendata.onisep.fr/uploads/Image/08/51_780_picto_handicap_auditif.png;[32,32]
Etablissement;"Etablissement médicosocial";730780392;"Centre d'éducation motrice Accueil Savoie Handicap";"Handicap moteur";"L'accueil Savoie Handicap";73232;Saint-Alban-Leysse;73222;Savoie;Auvergne-Rhône-Alpes;84;5.9640998840332;45.575939178467;http://opendata.onisep.fr/uploads/Image/88/52_819_picto_handicap_moteur.png;[32,32]
Etablissement;"Etablissement médicosocial";480780048;"Centre d'éducation motrice de Montrodat";"Handicap moteur";Vimenet;48100;Montrodat;48103;Lozère;Occitanie;76;3.3304400444031;44.549819946289;http://opendata.onisep.fr/uploads/Image/88/52_819_picto_handicap_moteur.png;[32,32]
Etablissement;"Etablissement médicosocial";970463667;"Centre d'éducation motrice Sainte Suzanne";"Handicap moteur";"10 rue du Centre Radio Bel Air";97400;Saint-Denis;97411;"La Réunion";"La Réunion";4;;;http://opendata.onisep.fr/uploads/Image/88/52_819_picto_handicap_moteur.png;[32,32]
Etablissement;"Etablissement médicosocial";620100230;"Centre d'éducation pour jeunes sourds";"Handicap auditif";"10 rue des Augustines";62008;Arras;62041;Pas-de-Calais;Hauts-de-France;32;2.7740499973297;50.289699554443;http://opendata.onisep.fr/uploads/Image/08/51_780_picto_handicap_auditif.png;[32,32]
Etablissement;"Etablissement médicosocial";750824534;"Centre d'éducation spécialisée pour déficients auditifs Augustin Grosselin";"Handicap auditif";"5-15 rue Olivier Noyer";75013;Paris;75100;Paris;Ile-de-France;11;2.3666000366211;48.82740020752;http://opendata.onisep.fr/uploads/Image/08/51_780_picto_handicap_auditif.png;[32,32]
Etablissement;"Etablissement médicosocial";340781095;"Centre d'éducation spécialisée pour déficients auditifs de l'Hérault";"Handicap auditif";"14 rue Saint-Vincent de Paul";34090;Montpellier;34172;Hérault;Occitanie;76;;;http://opendata.onisep.fr/uploads/Image/08/51_780_picto_handicap_auditif.png;[32,32]
Etablissement;"Etablissement médicosocial";860791334;"Centre d'éducation spécialisée pour enfants sourds-aveugles et sourds-malvoyants";"Handicap auditif";"116 avenue de la Libération";86000;Poitiers;86194;Vienne;Nouvelle-Aquitaine;75;0.32199;46.56909;http://opendata.onisep.fr/uploads/Image/08/51_780_picto_handicap_auditif.png;[32,32]
Etablissement;"Etablissement médicosocial";200004733;"Centre de déficients auditifs et visuels la Citadelle";"Handicap auditif";"Ecole du Chiostru";20200;Bastia;2B033;Haute-Corse;Corse;94;9.4508800506592;42.702201843262;http://opendata.onisep.fr/uploads/Image/08/51_780_picto_handicap_auditif.png;[32,32]
Etablissement;"Etablissement médicosocial";290000975;"Centre de Perharidy";"Handicap moteur";"presqu'île de Perharidy";29684;Roscoff;29239;Finistère;Bretagne;53;-3.9851191043854;48.718318939209;http://opendata.onisep.fr/uploads/Image/88/52_819_picto_handicap_moteur.png;[32,32]
Etablissement;"Etablissement de santé";600100309;"Centre de réadaptation pour enfants de Larmolaye";"Handicap moteur";"avenue Jacqueline Mallet Bois-Larris";60260;Lamorlaye;60346;Oise;Hauts-de-France;32;2.4460799694061;49.157348632812;http://opendata.onisep.fr/uploads/Image/88/52_819_picto_handicap_moteur.png;[32,32]
Etablissement;"Etablissement médicosocial";760782797;"Centre de rééducation de l'ouïe et la parole Ronsard";"Handicap auditif";"68 avenue Maurice Pimont";76072;"Le Havre";76351;Seine-Maritime;Normandie;28;0.10155999660492;49.493419647217;http://opendata.onisep.fr/uploads/Image/08/51_780_picto_handicap_auditif.png;[32,32]
Etablissement;"Etablissement médicosocial";630780542;"Centre de rééducation pour déficients visuels de Clermont-Ferrand";"Handicap visuel";"30 rue Sainte-Rose";63000;Clermont-Ferrand;63113;Puy-de-Dôme;Auvergne-Rhône-Alpes;84;3.0823900699616;45.776931762695;http://opendata.onisep.fr/uploads/Image/28/53_852_picto_handicap_visuel.png;[32,32]
Etablissement;"Etablissement médicosocial";220000491;"Centre éducatif rural pour aveugles et déficients visuels de Plenée-Jugon";"Handicap visuel";"la Villeneuve Sainte-Odile";22640;Plenée-Jugon;22185;Côtes-d'Armor;Bretagne;53;-2.4002690315247;48.364719390869;http://opendata.onisep.fr/uploads/Image/28/53_852_picto_handicap_visuel.png;[32,32]
Etablissement;"Institut médico-éducatif";170022941;"Centre Hélio-Marin de Saint-Trojan-les-Bains, secteur enfance handicapée";"Handicap moteur";"19 boulevard Félix Faure";17370;Saint-Trojan-les-Bains;17411;Charente-Maritime;Nouvelle-Aquitaine;75;-1.200739979744;45.833881378174;http://opendata.onisep.fr/uploads/Image/88/52_819_picto_handicap_moteur.png;[32,32]
Etablissement;"Etablissement médicosocial";350005138;"Centre Kerveiza";"Handicap auditif";"1 rue Louvain";35703;Rennes;35238;Ille-et-Vilaine;Bretagne;53;-1.6792999505997;48.111358642578;http://opendata.onisep.fr/uploads/Image/08/51_780_picto_handicap_auditif.png;[32,32]
Etablissement;"Etablissement médicosocial";350002234;"Centre médical et pédagogique de Rennes";"Handicap moteur";"41 avenue des Buttes-de-Coësmes";35700;Rennes;35238;Ille-et-Vilaine;Bretagne;53;-1.6792999505997;48.111358642578;http://opendata.onisep.fr/uploads/Image/88/52_819_picto_handicap_moteur.png;[32,32]
Etablissement;"Etablissement de santé";690000427;"Centre médico-chirurgical de réadaptation des Massues";"Handicap moteur";"92 rue du Docteur Edmond Locard";69322;Lyon;69380;Rhône;Auvergne-Rhône-Alpes;84;4.8014001846314;45.755401611328;http://opendata.onisep.fr/uploads/Image/88/52_819_picto_handicap_moteur.png;[32,32]
Etablissement;"Etablissement médicosocial";310014329;"Centre médico-social André Mathis";"Handicap visuel";"13 rue Romain Rolland";31800;Saint-Gaudens;31483;Haute-Garonne;Occitanie;76;0.7285399;43.1180668;http://opendata.onisep.fr/uploads/Image/28/53_852_picto_handicap_visuel.png;[32,32]
Etablissement;"Etablissement médicosocial";670780279;"Centre pour déficients sensoriels Jacoutôt";"Handicap auditif";"80 avenue du Neuhof";67100;Strasbourg;67482;Bas-Rhin;Grand-Est;44;7.766900062561;48.558700561523;http://opendata.onisep.fr/uploads/Image/08/51_780_picto_handicap_auditif.png;[32,32]
Etablissement;"Etablissement médicosocial";330783788;"Centre régional Alfred Peyrelongue";"Handicap visuel";"12 rue Alfred de Musset";33565;Carbon-Blanc;33096;Gironde;Nouvelle-Aquitaine;75;-0.50619000196457;44.893989562988;http://opendata.onisep.fr/uploads/Image/28/53_852_picto_handicap_visuel.png;[32,32]
Etablissement;"Etablissement médicosocial";310781059;"Centre spécialisé d'enseignement secondaire Jean Lagarde";"Handicap moteur";"1 avenue Tolosane";31520;Ramonville-Saint-Agne;31446;Haute-Garonne;Occitanie;76;1.4750699996948;43.546211242676;http://opendata.onisep.fr/uploads/Image/88/52_819_picto_handicap_moteur.png;[32,32]
Etablissement;"Etablissement médicosocial";910700624;"Centre surdité langage Albert Camus";"Handicap auditif";"allée de Nancy";91300;Massy;91377;Essonne;Ile-de-France;11;2.2720799446106;48.730529785156;http://opendata.onisep.fr/uploads/Image/08/51_780_picto_handicap_auditif.png;[32,32]
Service;"service d'éducation spéciale et de soins à domicile";190002774;"Equipe d'éducation spécialisée et de soins à domicile de Brive-la-Gaillarde";"Handicap moteur";"13 rue Emile Duclaux";19100;Brive-la-Gaillarde;19031;Corrèze;Nouvelle-Aquitaine;75;1.49803;45.14953;http://opendata.onisep.fr/uploads/Image/58/55_831_picto_handicap_moteur_inverse.png;[32,32]
Service;"service d'éducation spéciale et de soins à domicile";190002782;"Equipe d'éducation spécialisée et de soins à domicile de Tulle-Ussel";"Handicap moteur";"rue de l'Abbé Lair";19000;Tulle;19272;Corrèze;Nouvelle-Aquitaine;75;1.764;45.26152;http://opendata.onisep.fr/uploads/Image/58/55_831_picto_handicap_moteur_inverse.png;[32,32]
Etablissement;"Etablissement médicosocial";910805076;"Etablissement intégré Jean-Charles Gatinot";"Handicap auditif";"place Joffre";91230;Montgeron;91421;Essonne;Ile-de-France;11;2.4598999023438;48.704460144043;http://opendata.onisep.fr/uploads/Image/08/51_780_picto_handicap_auditif.png;[32,32]
Etablissement;"Etablissement médicosocial";310025879;"Etablissement pour enfants et adolescents polyhandicapés";"Handicap moteur";"26 avenue Tolosane";31520;Ramonville-Saint-Agne;31446;Haute-Garonne;Occitanie;76;1.47212;43.54831;http://opendata.onisep.fr/uploads/Image/88/52_819_picto_handicap_moteur.png;[32,32]
Etablissement;"Etablissement de santé";750810384;"Hôpital de jour Georges Vacola";"Handicap auditif";"44 quai de la Loire";75019;Paris;75100;Paris;Ile-de-France;11;2.3910999298096;48.882598876953;http://opendata.onisep.fr/uploads/Image/08/51_780_picto_handicap_auditif.png;[32,32]
Etablissement;"Etablissement médicosocial";280505611;"Institut André Beulé";"Handicap auditif";"1 bis rue Mauté Lelasseux";28400;Nogent-le-Rotrou;28280;Eure-et-Loir;"Centre-Val de Loire";24;0.81854581832886;48.317022901006;http://opendata.onisep.fr/uploads/Image/08/51_780_picto_handicap_auditif.png;[32,32]
Etablissement;"Etablissement médicosocial";440029890;"Institut d'éducation auditive la Durantière";"Handicap auditif";"17 rue Baptiste Marcet";44100;Nantes;44109;Loire-Atlantique;"Pays de la Loire";52;-1.6097999811173;47.202098846435;http://opendata.onisep.fr/uploads/Image/08/51_780_picto_handicap_auditif.png;[32,32]
Etablissement;"Etablissement médicosocial";590780136;"Institut d'éducation motrice Amédée Fougerousse";"Handicap moteur";"132 avenue d'Alsace-Lorraine";59500;Douai;59178;Nord;Hauts-de-France;32;3.0807800292969;50.367938995361;http://opendata.onisep.fr/uploads/Image/88/52_819_picto_handicap_moteur.png;[32,32]
Etablissement;"Etablissement médicosocial";380000497;"Institut d'éducation motrice d'Eybens";"Handicap moteur";"3 rue de l'Industrie";38320;Eybens;38158;Isère;Auvergne-Rhône-Alpes;84;5.7494301795959;45.147171020508;http://opendata.onisep.fr/uploads/Image/88/52_819_picto_handicap_moteur.png;[32,32]
Etablissement;"Etablissement médicosocial";620101139;"Institut d'éducation motrice de Béthune";"Handicap moteur";"71 place Sévigné";62400;Béthune;62119;Pas-de-Calais;Hauts-de-France;32;2.6382999420166;50.530529022217;http://opendata.onisep.fr/uploads/Image/88/52_819_picto_handicap_moteur.png;[32,32]
Etablissement;"Etablissement médicosocial";820000107;"Institut d'éducation motrice de Fonneuve - Centre Fonneuve";"Handicap moteur";"2551 route de la Vitarelle";82000;Montauban;82121;Tarn-et-Garonne;Occitanie;76;1.3943105;44.0544369;http://opendata.onisep.fr/uploads/Image/88/52_819_picto_handicap_moteur.png;[32,32]
Etablissement;"Etablissement médicosocial";570005082;"Institut d'éducation motrice de Moselle";"Handicap moteur";"6 rue Royal Canadian Air Force";57530;Ars-Laquenexy;57031;Moselle;Grand-Est;44;6.1959306;49.1098947;http://opendata.onisep.fr/uploads/Image/88/52_819_picto_handicap_moteur.png;[32,32]
Etablissement;"Etablissement médicosocial";500021803;"Institut d'éducation motrice de Saint-Lô";"Handicap moteur";"30 rue François 1er";50006;Saint-Lô;50502;Manche;Normandie;28;-1.0828136;49.1154686;http://opendata.onisep.fr/uploads/Image/88/52_819_picto_handicap_moteur.png;[32,32]
Etablissement;"Etablissement médicosocial";490000551;"Institut d'éducation motrice de Trélazé";"Handicap moteur";"La Guiberdière";4980;Trélazé;49353;Maine-et-Loire;"Pays de la Loire";52;-0.46674001216888;47.44554901123;http://opendata.onisep.fr/uploads/Image/88/52_819_picto_handicap_moteur.png;[32,32]
Etablissement;"Etablissement médicosocial";590784799;"Institut d'éducation motrice du Bord de Lys";"Handicap moteur";"87 rue Lutun";59116;Houplines;59317;Nord;Hauts-de-France;32;2.9188871;50.7002335;http://opendata.onisep.fr/uploads/Image/88/52_819_picto_handicap_moteur.png;[32,32]
Etablissement;"Etablissement médicosocial";640780771;"Institut d'éducation motrice du centre d'Hérauritz";"Handicap moteur";"quartier Hérauritz";64480;Ustaritz;64547;Pyrénées-Atlantiques;Nouvelle-Aquitaine;75;-1.4589099884033;43.398258209229;http://opendata.onisep.fr/uploads/Image/88/52_819_picto_handicap_moteur.png;[32,32]
Etablissement;"Etablissement médicosocial";380780791;"Institut d'éducation motrice et de formation professionnelle du Chevalon de Voreppe";"Handicap moteur";"100 chemin de Malsouche";38340;Voreppe;38565;Isère;Auvergne-Rhône-Alpes;84;5.6423301696777;45.287651062012;http://opendata.onisep.fr/uploads/Image/88/52_819_picto_handicap_moteur.png;[32,32]
Etablissement;"Etablissement médicosocial";660786880;"Institut d'éducation motrice Galaxie";"Handicap moteur";"157 avenue Charlemagne";66700;Argelès-sur-Mer;66008;Pyrénées-Orientales;Occitanie;76;3.0320183;42.5496867;http://opendata.onisep.fr/uploads/Image/88/52_819_picto_handicap_moteur.png;[32,32]
Etablissement;"Etablissement médicosocial";870000148;"Institut d'éducation motrice Gervais de Lafond";"Handicap moteur";"23 avenue de la Gare";87270;Couzeix;87050;Haute-Vienne;Nouvelle-Aquitaine;75;1.2382199764252;45.872680664062;http://opendata.onisep.fr/uploads/Image/88/52_819_picto_handicap_moteur.png;[32,32]
Etablissement;"Etablissement médicosocial";590788824;"Institut d'éducation motrice Jules Ferry";"Handicap moteur";"40 rue de Rivoli";59007;Lille;59350;Nord;Hauts-de-France;32;3.0922497;50.6360023;http://opendata.onisep.fr/uploads/Image/88/52_819_picto_handicap_moteur.png;[32,32]
Etablissement;"Etablissement médicosocial";440000768;"Institut d'éducation motrice la Durantière";"Handicap moteur";"17 rue Baptiste Marcel";44100;Nantes;44109;Loire-Atlantique;"Pays de la Loire";52;-1.6097999811173;47.202098846435;http://opendata.onisep.fr/uploads/Image/88/52_819_picto_handicap_moteur.png;[32,32]
Etablissement;"Etablissement médicosocial";270013568;"Institut d'éducation motrice la Source de Vernon";"Handicap moteur";"76 rue Bizzy";27200;Vernon;27681;Eure;Normandie;28;1.4690400362015;49.090919494629;http://opendata.onisep.fr/uploads/Image/88/52_819_picto_handicap_moteur.png;[32,32]
Etablissement;"Etablissement médicosocial";910700012;"Institut d'éducation motrice le Petit Tremblay";"Handicap moteur";"14 rue Antonio Vivaldi";91280;Saint-Pierre-du-Perray;91573;Essonne;Ile-de-France;11;2.511453;48.6128108;http://opendata.onisep.fr/uploads/Image/88/52_819_picto_handicap_moteur.png;[32,32]
Etablissement;"Etablissement médicosocial";420782393;"Institut d'éducation motrice les Combes de la Grange";"Handicap moteur";"rue des combes";42500;"Le Chambon-Feugerolles";42044;Loire;Auvergne-Rhône-Alpes;84;;;http://opendata.onisep.fr/uploads/Image/88/52_819_picto_handicap_moteur.png;[32,32]
Etablissement;"Etablissement médicosocial";490542974;"Institut d'éducation motrice Les Tournesols";"Handicap moteur";"114 rue de la Chalouere";49000;Angers;49007;Maine-et-Loire;"Pays de la Loire";52;-0.5350969;47.4830055;http://opendata.onisep.fr/uploads/Image/88/52_819_picto_handicap_moteur.png;[32,32]
Etablissement;"Etablissement médicosocial";830215810;"Institut d'éducation motrice Olbia";"Handicap moteur";l'Almanarre;83407;Hyères;83069;Var;"Provence-Alpes-Côte d'Azur";93;6.1319198608398;43.120861053467;http://opendata.onisep.fr/uploads/Image/88/52_819_picto_handicap_moteur.png;[32,32]
Etablissement;"Etablissement médicosocial";310782602;"Institut d'éducation motrice Pierre Froment";"Handicap moteur";"5 bis rue du Bac";31520;Ramonville-Saint-Agne;31446;Haute-Garonne;Occitanie;76;1.4750699996948;43.546211242676;http://opendata.onisep.fr/uploads/Image/88/52_819_picto_handicap_moteur.png;[32,32]
Etablissement;"Etablissement médicosocial";900000118;"Institut d'éducation motrice Thérèse Bonnaymé, annexe de Belfort";"Handicap moteur";"rue Moppert";90000;Belfort;90010;Territoire-de-Belfort;Bourgogne-Franche-Comté;27;6.8583;47.6422;http://opendata.onisep.fr/uploads/Image/88/52_819_picto_handicap_moteur.png;[32,32]
Etablissement;"Etablissement médicosocial";030786289;"Institut d'éducation motrice Thésée";"Handicap moteur";"73 route de Saulcet";3500;Saint-Pourçain-sur-Sioule;03254;Allier;Auvergne-Rhône-Alpes;84;3.2912399768829;46.308540344238;http://opendata.onisep.fr/uploads/Image/88/52_819_picto_handicap_moteur.png;[32,32]
Etablissement;"Etablissement médicosocial";100007228;"Institut d'éducation sensorielle Chanteloup";"Handicap auditif";"11 rue de Chanteloup";10300;Sainte-Savine;10362;Aube;Grand-Est;44;4.04984998703;48.293418884277;http://opendata.onisep.fr/uploads/Image/08/51_780_picto_handicap_auditif.png;[32,32]
Etablissement;"Etablissement médicosocial";060799707;"Institut d'éducation sensorielle Clément Ader";"Handicap visuel";"2 boulevard des Deux Corniches";6300;Nice;06088;Alpes-Maritimes;"Provence-Alpes-Côte d'Azur";93;7.2722101211548;43.6989402771;http://opendata.onisep.fr/uploads/Image/28/53_852_picto_handicap_visuel.png;[32,32]
Etablissement;"Etablissement médicosocial";570004804;"Institut d'éducation sensorielle de Metz, antenne de Thionville";"Handicap auditif";"24 boucle de la Milliaire";57100;Thionville;57672;Moselle;Grand-Est;44;6.1536898612976;49.356468200684;http://opendata.onisep.fr/uploads/Image/08/51_780_picto_handicap_auditif.png;[32,32]
Etablissement;"Etablissement médicosocial";970463154;"Institut d'éducation sensorielle la Ressource";"Handicap auditif";"44 rue de l'Abbé Pierre";97438;Sainte-Marie;97418;"La Réunion";"La Réunion";4;55.54999923706;-20.88330078125;http://opendata.onisep.fr/uploads/Image/08/51_780_picto_handicap_auditif.png;[32,32]
Etablissement;"Etablissement médicosocial";440029700;"Institut d'éducation visuelle la Durantière";"Handicap visuel";"17 rue Baptiste Marcet";44000;Nantes;44109;Loire-Atlantique;"Pays de la Loire";52;-1.6097999811173;47.202098846435;http://opendata.onisep.fr/uploads/Image/28/53_852_picto_handicap_visuel.png;[32,32]
Etablissement;"Etablissement médicosocial";370000366;"Institut de rééducation et d'éducation pour la communication, l'ouie et la vue Beau Site";"Handicap auditif";"31 rue de la Loire";37075;Tours;37261;Indre-et-Loire;"Centre-Val de Loire";24;0.68923002481461;47.390441894531;http://opendata.onisep.fr/uploads/Image/08/51_780_picto_handicap_auditif.png;[32,32]
Etablissement;"Etablissement médicosocial";130783483;"Institut l'Arc en Ciel";"Handicap visuel";"8 montée de l'Oratoire";13007;Marseille;13200;Bouches-du-Rhône;"Provence-Alpes-Côte d'Azur";93;5.3689999580383;43.289501190185;http://opendata.onisep.fr/uploads/Image/28/53_852_picto_handicap_visuel.png;[32,32]
Etablissement;"Institut médico-éducatif";840000152;"Institut médico-éducatif départemental du Vaucluse";"Handicap moteur";"923 route de la maison d'enfants";84800;L'Isle-sur-la-Sorgue;84054;Vaucluse;"Provence-Alpes-Côte d'Azur";93;5.0749362;43.9367777;http://opendata.onisep.fr/uploads/Image/88/52_819_picto_handicap_moteur.png;[32,32]
Etablissement;"Etablissement médicosocial";500000328;"Institut médico-éducatif Henri Wallon";"Handicap moteur";"198 rue St Pierre et Miquelon";50400;Granville;50218;Manche;Normandie;28;-1.5668101;48.8349383;http://opendata.onisep.fr/uploads/Image/88/52_819_picto_handicap_moteur.png;[32,32]
Etablissement;"Etablissement médicosocial";910018472;"Institut médico-éducatif Jean-Paul";"Handicap visuel";"29 allée Boissy d'Anglas";91000;Evry-Courcouronnes;91228;Essonne;Ile-de-France;11;2.4307301044464;48.622741699219;http://opendata.onisep.fr/uploads/Image/28/53_852_picto_handicap_visuel.png;[32,32]
Etablissement;"Etablissement médicosocial";590784989;"Institut médico-éducatif la Pépinière";"Handicap visuel";"1 allée André Glatigny";59120;Loos;59360;Nord;Hauts-de-France;32;3.0146899223328;50.614910125732;http://opendata.onisep.fr/uploads/Image/28/53_852_picto_handicap_visuel.png;[32,32]
Etablissement;"Etablissement médicosocial";910700400;"Institut médicoprofessionnel Valentin Haüy";"Handicap visuel";"30 avenue Mazarin";91380;Chilly-Mazarin;91161;Essonne;Ile-de-France;11;2.3137099742889;48.701850891113;http://opendata.onisep.fr/uploads/Image/28/53_852_picto_handicap_visuel.png;[32,32]
Etablissement;"Etablissement médicosocial";510000300;"Institut Michel Fandre";"Handicap visuel";"51 rue Léon Mathieu";51573;Reims;51454;Marne;Grand-Est;44;4.0264401435852;49.256481170654;http://opendata.onisep.fr/uploads/Image/28/53_852_picto_handicap_visuel.png;[32,32]
Etablissement;"Etablissement médicosocial";730780731;"Institut national de jeunes sourds de Chambéry";"Handicap auditif";"33 rue de l'Epine";73160;Cognin;73087;Savoie;Auvergne-Rhône-Alpes;84;5.8820600509644;45.59252166748;http://opendata.onisep.fr/uploads/Image/08/51_780_picto_handicap_auditif.png;[32,32]
Etablissement;"Etablissement médicosocial";350002762;"Institut Paul Cézanne";"Handicap auditif";"8 rue Anne Boivent";35133;Fougères;35115;Ille-et-Vilaine;Bretagne;53;-1.192409992218;48.346790313721;http://opendata.onisep.fr/uploads/Image/08/51_780_picto_handicap_auditif.png;[32,32]
Etablissement;"Etablissement médicosocial";290018209;"Institut pour l'insertion des déficients visuels";"Handicap visuel";"rue Alfred Sauvy";29480;"Le Relecq-Kerhuon";29235;Finistère;Bretagne;53;-4.3979802131653;48.40784072876;http://opendata.onisep.fr/uploads/Image/28/53_852_picto_handicap_visuel.png;[32,32]
Etablissement;"Etablissement médicosocial";870008232;"Institut régional d'éducation sensorielle Aimé Labrégère";"Handicap auditif";"1 rue Henri Barbusse";87000;Limoges;87085;Haute-Vienne;Nouvelle-Aquitaine;75;1.2337186;45.823797;http://opendata.onisep.fr/uploads/Image/08/51_780_picto_handicap_auditif.png;[32,32]
Etablissement;"Etablissement de santé";340000025;"Institut Saint-Pierre";"Handicap moteur";"371 avenue Evêché de Maguelone";34250;Palavas-les-Flots;34192;Hérault;Occitanie;76;3.9233300685883;43.527500152588;http://opendata.onisep.fr/uploads/Image/88/52_819_picto_handicap_moteur.png;[32,32]
Etablissement;"Etablissement de santé";640780904;"Maison d'enfants le Nid béarnais";"Handicap moteur";"boulevard Hauterive";64000;Pau;64445;Pyrénées-Atlantiques;Nouvelle-Aquitaine;75;-0.36849901080131;43.296211242676;http://opendata.onisep.fr/uploads/Image/88/52_819_picto_handicap_moteur.png;[32,32]
Service;"service d'éducation spéciale et de soins à domicile";870015773;"SAAAIS de l'Association régionale pour l'éducation sensorielle Aimé Labrégère";"Handicap visuel";"1 rue Henri Barbusse";87000;Limoges;87085;Haute-Vienne;Nouvelle-Aquitaine;75;1.2332999706268;45.843601226807;http://opendata.onisep.fr/uploads/Image/8c/56_870_picto_handicap_visuel_inverse.png;[32,32]
Etablissement;"Etablissement médicosocial";690781075;"Section d'éducation et d'enseignement spécialisé Roland Champagnat";"Handicap auditif";"22 rue Professeur Patel";69009;Lyon;69380;Rhône;Auvergne-Rhône-Alpes;84;4.6658616;45.8485223;http://opendata.onisep.fr/uploads/Image/08/51_780_picto_handicap_auditif.png;[32,32]
Etablissement;"Etablissement médicosocial";390005775;"Section d'éducation motrice de Lons-le-Saunier";"Handicap moteur";"29 bis rue des Toupes";39000;Lons-le-Saunier;39300;Jura;Bourgogne-Franche-Comté;27;5.548620223999;46.674991607666;http://opendata.onisep.fr/uploads/Image/88/52_819_picto_handicap_moteur.png;[32,32]
Etablissement;"Etablissement médicosocial";260010038;"Section d'éducation motrice de Valence";"Handicap moteur";"rue Henri Becquerel";26000;Valence;26362;Drôme;Auvergne-Rhône-Alpes;84;4.8905601501465;44.931751251221;http://opendata.onisep.fr/uploads/Image/88/52_819_picto_handicap_moteur.png;[32,32]
Service;"service d'éducation spéciale et de soins à domicile";360004758;"Service d'accompagnement familial et d'éducation précoce de Châteauroux";"Handicap auditif";"10 rue Albert Aurier";36000;Châteauroux;36044;Indre;"Centre-Val de Loire";24;1.7065631;46.8152279;http://opendata.onisep.fr/uploads/Image/39/54_801_picto_handicap_auditif_inverse.png;[32,32]
Service;"service d'éducation spéciale et de soins à domicile";;"Service d'accompagnement familial et d'éducation précoce de l'INJA";"Handicap visuel";"56 boulevard des Invalides";75007;Paris;75100;Paris;Ile-de-France;11;2.3136999607086;48.856498718262;http://opendata.onisep.fr/uploads/Image/8c/56_870_picto_handicap_visuel_inverse.png;[32,32]
Service;"service d'éducation spéciale et de soins à domicile";170014849;"Service d'accompagnement familial et d'éducation précoce de Rochefort";"Handicap auditif";"128 bis rue du 14 juillet";17300;Rochefort;17299;Charente-Maritime;Nouvelle-Aquitaine;75;-0.97573;45.937591;http://opendata.onisep.fr/uploads/Image/39/54_801_picto_handicap_auditif_inverse.png;[32,32]
Service;"service d'éducation spéciale et de soins à domicile";840015549;"Service d'accompagnement familial et d'éducation précoce du Centre Hospitalier Henri Duffaut";"Handicap auditif";"10 avenue de la Croix Rouge";84000;Avignon;84007;Vaucluse;"Provence-Alpes-Côte d'Azur";93;4.7991343;43.9429636;http://opendata.onisep.fr/uploads/Image/39/54_801_picto_handicap_auditif_inverse.png;[32,32]
Service;"service d'éducation spéciale et de soins à domicile";590007977;"Service d'accompagnement familial et d'éducation précoce du CRESDA de Pont-à-Marcq";"Handicap auditif";"64 rue nationale";59710;Pont-à-Marcq;59466;Nord;Hauts-de-France;32;3.1165694;50.5179586;http://opendata.onisep.fr/uploads/Image/39/54_801_picto_handicap_auditif_inverse.png;[32,32]
Service;"service d'éducation spéciale et de soins à domicile";780809778;"Service d'accompagnement familial et d'éducation précoce les Grésillons";"Handicap auditif";"13 bis rue de La Bruyère";78300;Poissy;78498;Yvelines;Ile-de-France;11;;;http://opendata.onisep.fr/uploads/Image/39/54_801_picto_handicap_auditif_inverse.png;[32,32]
Service;"service d'éducation spéciale et de soins à domicile";610003618;"Service d'aide à l'acquisition de l'autonomie et à l'intégration scolaire d'Alençon";"Handicap visuel";"103 chemin des Planches";61000;Alençon;61001;Orne;Normandie;28;0.083700001239777;48.430778503418;http://opendata.onisep.fr/uploads/Image/8c/56_870_picto_handicap_visuel_inverse.png;[32,32]
Service;"service d'éducation spéciale et de soins à domicile";060021474;"Service d'aide à l'acquisition de l'autonomie et à l'intégration scolaire de l'IES Clément Ader";"Handicap visuel";"2 boulevard des Deux Corniches";6300;Nice;06088;Alpes-Maritimes;"Provence-Alpes-Côte d'Azur";93;7.2722101211548;43.6989402771;http://opendata.onisep.fr/uploads/Image/8c/56_870_picto_handicap_visuel_inverse.png;[32,32]
Service;"service d'éducation spéciale et de soins à domicile";750044091;"Service d'aide à l'acquisition de l'autonomie et à l'intégration scolaire de l'INJA";"Handicap visuel";"56 boulevard des Invalides";75007;Paris;75100;Paris;Ile-de-France;11;2.3136999607086;48.856498718262;http://opendata.onisep.fr/uploads/Image/8c/56_870_picto_handicap_visuel_inverse.png;[32,32]
Service;"service d'éducation spéciale et de soins à domicile";130807944;"Service d'aide à l'acquisition de l'autonomie et à l'intégration scolaire de l'Institut Arc en Ciel";"Handicap visuel";"8 montée de l'Oratoire";13007;Marseille;13200;Bouches-du-Rhône;"Provence-Alpes-Côte d'Azur";93;5.3689999580383;43.289501190185;http://opendata.onisep.fr/uploads/Image/8c/56_870_picto_handicap_visuel_inverse.png;[32,32]
Service;"service d'éducation spéciale et de soins à domicile";380006098;"Service d'aide à l'acquisition de l'autonomie et à l'intégration scolaire de l'Isère";"Handicap visuel";"4 rue Voltaire";38320;Eybens;38158;Isère;Auvergne-Rhône-Alpes;84;5.7426073;45.164702;http://opendata.onisep.fr/uploads/Image/8c/56_870_picto_handicap_visuel_inverse.png;[32,32]
Service;"service d'éducation spéciale et de soins à domicile";790013486;"Service d'aide à l'acquisition de l'autonomie et à l'intégration scolaire de Niort";"Handicap visuel";"11 rue de la Convention";79000;Niort;79191;Deux-Sèvres;Nouvelle-Aquitaine;75;-0.46174898743629;46.321098327637;http://opendata.onisep.fr/uploads/Image/8c/56_870_picto_handicap_visuel_inverse.png;[32,32]
Service;"service d'éducation spéciale et de soins à domicile";420004319;"Service d'aide à l'acquisition de l'autonomie et à l'intégration scolaire de Saint-Etienne";"Handicap visuel";"5 allée Jean Racine";42100;Saint-Etienne;42218;Loire;Auvergne-Rhône-Alpes;84;4.41836;45.44211;http://opendata.onisep.fr/uploads/Image/8c/56_870_picto_handicap_visuel_inverse.png;[32,32]
Service;"service d'éducation spéciale et de soins à domicile";690012869;"Service d'aide à l'acquisition de l'autonomie et à l'intégration scolaire de Villeurbanne";"Handicap visuel";"26 rue de la Baïsse";69100;Villeurbanne;69266;Rhône;Auvergne-Rhône-Alpes;84;4.8917299;45.7634162;http://opendata.onisep.fr/uploads/Image/8c/56_870_picto_handicap_visuel_inverse.png;[32,32]
Service;"service d'éducation spéciale et de soins à domicile";940806128;"Service d'aide à l'acquisition de l'autonomie et à l'intégration scolaire du SDIDV Janina-Ganot";"Handicap visuel";"41 rue Le Corbusier";94000;Créteil;94028;Val-de-Marne;Ile-de-France;11;2.4852299690247;48.802501678467;http://opendata.onisep.fr/uploads/Image/8c/56_870_picto_handicap_visuel_inverse.png;[32,32]
Service;"service d'éducation spéciale et de soins à domicile";240004051;"Service d'aide à l'acquisition de l'autonomie et à la scolarisation Ailhaud Castelet";"Handicap visuel";"rue des Alsaciens";24750;"Boulazac Isle Manoire";24053;Dordogne;Nouvelle-Aquitaine;75;0.76401001214981;45.18090057373;http://opendata.onisep.fr/uploads/Image/8c/56_870_picto_handicap_visuel_inverse.png;[32,32]
Service;"service d'éducation spéciale et de soins à domicile";260008909;"Service d'aide à l'acquisition de l'autonomie et à la scolarisation Drôme-Ardèche, antenne de Valence";"Handicap visuel";"36 rue Gustave Eiffel";26000;Valence;26362;Drôme;Auvergne-Rhône-Alpes;84;4.92377;44.92242;http://opendata.onisep.fr/uploads/Image/8c/56_870_picto_handicap_visuel_inverse.png;[32,32]
Service;"service d'éducation spéciale et de soins à domicile";670798271;"Service d'aide à l'acquisition de l'autonomie et à la scolarisation du centre Louis Braille";"Handicap visuel";"80 avenue du Neuhof";67000;Strasbourg;67482;Bas-Rhin;Grand-Est;44;7.766900062561;48.558700561523;http://opendata.onisep.fr/uploads/Image/8c/56_870_picto_handicap_visuel_inverse.png;[32,32]
Service;"service d'éducation spéciale et de soins à domicile";590817060;"Service d'aide à l'acquisition de l'autonomie et à scolarisation la Pépinière";"Handicap visuel";"31 avenue Pierre Mauroy";59120;Loos;59360;Nord;Hauts-de-France;32;3.0146899223328;50.614910125732;http://opendata.onisep.fr/uploads/Image/8c/56_870_picto_handicap_visuel_inverse.png;[32,32]
Etablissement;"Etablissement médicosocial";750710097;"Service d'aide aux familles de l'INJA";"Handicap visuel";"56 boulevard des Invalides";75007;Paris;75100;Paris;Ile-de-France;11;2.352962;48.856922;http://opendata.onisep.fr/uploads/Image/28/53_852_picto_handicap_visuel.png;[32,32]
Service;"service d'éducation spéciale et de soins à domicile";930818299;"Service d'aide spécialisée à l'adaptation et à l'intégration scolaire";"Handicap moteur";"15-17 avenue de Verdun";93140;Bondy;93010;Seine-Saint-Denis;Ile-de-France;11;2.4795498847961;48.901889801025;http://opendata.onisep.fr/uploads/Image/58/55_831_picto_handicap_moteur_inverse.png;[32,32]
Service;"service d'éducation spéciale et de soins à domicile";660782558;"Service d'éducation auditive de Perpignan (SSEFIS)";"Handicap auditif";"19 allée Aimé Giral";66000;Perpignan;66136;Pyrénées-Orientales;Occitanie;76;;;http://opendata.onisep.fr/uploads/Image/39/54_801_picto_handicap_auditif_inverse.png;[32,32]
Service;"service d'éducation spéciale et de soins à domicile";570014365;"Service d'éducation et de soins à domicile de l'IES de Thionville";"Handicap auditif";"24 boucle de la Milliaire";57100;Thionville;57672;Moselle;Grand-Est;44;6.1536898612976;49.356468200684;http://opendata.onisep.fr/uploads/Image/39/54_801_picto_handicap_auditif_inverse.png;[32,32]
Service;"service d'éducation spéciale et de soins à domicile";020001871;"Service d'éducation et de soins spécialisés à domicile d'Athies-sous-Laon";"Handicap moteur";"rue des Ecoles";2840;Athies-sous-Laon;02028;Aisne;Hauts-de-France;32;3.6804789;49.5750734;http://opendata.onisep.fr/uploads/Image/58/55_831_picto_handicap_moteur_inverse.png;[32,32]
Service;"service d'éducation spéciale et de soins à domicile";770811248;"Service d'éducation et de soins spécialisés à domicile de Dammarie-les-Lys";"Handicap moteur";"85 rue Eugène Delaroue";77190;Dammarie-les-Lys;77152;Seine-et-Marne;Ile-de-France;11;2.6536400318146;48.527481079102;http://opendata.onisep.fr/uploads/Image/58/55_831_picto_handicap_moteur_inverse.png;[32,32]
Service;"service d'éducation spéciale et de soins à domicile";270007446;"Service d'éducation et de soins spécialisés à domicile de l'Eure";"Handicap moteur";"voie de la Garenne";27930;Guichainville;27306;Eure;Normandie;28;1.1898599863052;48.977821350098;http://opendata.onisep.fr/uploads/Image/58/55_831_picto_handicap_moteur_inverse.png;[32,32]
Service;"service d'éducation spéciale et de soins à domicile";590044137;"Service d'éducation et de soins spécialisés à domicile Marc Sautelet";"Handicap moteur";"52 rue de Ticleni";59650;Villeneuve-d'Ascq;59009;Nord;Hauts-de-France;32;3.1600999832153;50.614700317383;http://opendata.onisep.fr/uploads/Image/58/55_831_picto_handicap_moteur_inverse.png;[32,32]
Service;"service d'éducation spéciale et de soins à domicile";030785463;"Service d'éducation spéciale et de soin à domicile Jules Ferry";"Handicap auditif";"39 avenue Jules Ferry";3100;Montluçon;03185;Allier;Auvergne-Rhône-Alpes;84;2.59912;46.34179;http://opendata.onisep.fr/uploads/Image/39/54_801_picto_handicap_auditif_inverse.png;[32,32]
Service;"service d'éducation spéciale et de soins à domicile";590817334;"Service d'éducation spéciale et de soins à domicile Annick Ducornet";"Handicap moteur";"62 rue Arago";59210;Coudekerque-Branche;59155;Nord;Hauts-de-France;32;2.3974199295044;51.020118713379;http://opendata.onisep.fr/uploads/Image/58/55_831_picto_handicap_moteur_inverse.png;[32,32]
Service;"service d'éducation spéciale et de soins à domicile";340798115;"Service d'éducation spéciale et de soins à domicile Boréal";"Handicap moteur";"avenue Monseigneur Coste";34500;Béziers;34032;Hérault;Occitanie;76;3.2520642;43.3425372;http://opendata.onisep.fr/uploads/Image/58/55_831_picto_handicap_moteur_inverse.png;[32,32]
Service;"service d'éducation spéciale et de soins à domicile";800015497;"Service d'éducation spéciale et de soins à domicile d'Amiens";"Handicap moteur";"13 rue Alfred Catel";80000;Amiens;80021;Somme;Hauts-de-France;32;2.277667;49.9049147;http://opendata.onisep.fr/uploads/Image/58/55_831_picto_handicap_moteur_inverse.png;[32,32]
Service;"service d'éducation spéciale et de soins à domicile";070785779;"Service d'éducation spéciale et de soins à domicile d'Annonay";"Handicap moteur";"rue Jacques Prévert";7100;Annonay;07010;Ardèche;Auvergne-Rhône-Alpes;84;4.6694898605347;45.23957824707;http://opendata.onisep.fr/uploads/Image/58/55_831_picto_handicap_moteur_inverse.png;[32,32]
Service;"service d'éducation spéciale et de soins à domicile";170024178;"Service d'éducation spéciale et de soins à domicile d'Aytré, antenne de Saintes";"Handicap moteur";"16 avenue Jourdan";17100;Saintes;17415;Charente-Maritime;Nouvelle-Aquitaine;75;-0.61328;45.74521;http://opendata.onisep.fr/uploads/Image/58/55_831_picto_handicap_moteur_inverse.png;[32,32]
Service;"service d'éducation spéciale et de soins à domicile";910814235;"Service d'éducation spéciale et de soins à domicile d'Orsay";"Handicap moteur";"82 bis rue de Paris";91400;Orsay;91471;Essonne;Ile-de-France;11;2.1874499320984;48.699150085449;http://opendata.onisep.fr/uploads/Image/58/55_831_picto_handicap_moteur_inverse.png;[32,32]
Service;"service d'éducation spéciale et de soins à domicile";330798992;"Service d'éducation spéciale et de soins à domicile de Bordeaux";"Handicap moteur";"270 boulevard du Président Wilson";33000;Bordeaux;33063;Gironde;Nouvelle-Aquitaine;75;-0.5970346;44.8488732;http://opendata.onisep.fr/uploads/Image/58/55_831_picto_handicap_moteur_inverse.png;[32,32]
Service;"service d'éducation spéciale et de soins à domicile";110004256;"Service d'éducation spéciale et de soins à domicile de Carcassonne";"Handicap moteur";"7 rue Benjamin Franklin";11000;Carcassonne;11069;Aude;Occitanie;76;2.3602900505066;43.211380004883;http://opendata.onisep.fr/uploads/Image/58/55_831_picto_handicap_moteur_inverse.png;[32,32]
Service;"service d'éducation spéciale et de soins à domicile";500019591;"Service d'éducation spéciale et de soins à domicile de Cherbourg-Octeville";"Handicap moteur";"37 rue de l'Ermitage";50100;Cherbourg-en-Cotentin;50129;Manche;Normandie;28;-1.6164200305939;49.639198303223;http://opendata.onisep.fr/uploads/Image/58/55_831_picto_handicap_moteur_inverse.png;[32,32]
Service;"service d'éducation spéciale et de soins à domicile";570005066;"Service d'éducation spéciale et de soins à domicile de Freyming-Merlebach";"Handicap moteur";"11 rue Foch";57800;Freyming-Merlebach;57240;Moselle;Grand-Est;44;6.82190990448;49.146118164062;http://opendata.onisep.fr/uploads/Image/58/55_831_picto_handicap_moteur_inverse.png;[32,32]
Service;"service d'éducation spéciale et de soins à domicile";650004500;"Service d'éducation spéciale et de soins à domicile de l'IEM Adolphe Pedebidou";"Handicap moteur";"rue Maurane Saulnier";65000;Tarbes;65440;Hautes-Pyrénées;Occitanie;76;0.072149999439716;43.253219604492;http://opendata.onisep.fr/uploads/Image/58/55_831_picto_handicap_moteur_inverse.png;[32,32]
Service;"service d'éducation spéciale et de soins à domicile";770016517;"Service d'éducation spéciale et de soins à domicile de l'IEM de Tournan-en-Brie";"Handicap moteur";"22 route de Coubert Presles-en-Brie";77220;Tournan-en-Brie;77470;Seine-et-Marne;Ile-de-France;11;2.7624800205231;48.740020751953;http://opendata.onisep.fr/uploads/Image/58/55_831_picto_handicap_moteur_inverse.png;[32,32]
Service;"service d'éducation spéciale et de soins à domicile";420011629;"Service d'éducation spéciale et de soins à domicile de l'IEM Les Combes de la Grange";"Handicap moteur";"rue des Combes";42500;"Le Chambon-Feugerolles";42044;Loire;Auvergne-Rhône-Alpes;84;4.3475603;45.4023698;http://opendata.onisep.fr/uploads/Image/58/55_831_picto_handicap_moteur_inverse.png;[32,32]
Service;"service d'éducation spéciale et de soins à domicile";080009871;"Service d'éducation spéciale et de soins à domicile de l'IEP de Bazeilles";"Handicap moteur";"7 avenue d'Auteuil";8140;Bazeilles;08053;Ardennes;Grand-Est;44;4.9797379;49.6815532;http://opendata.onisep.fr/uploads/Image/58/55_831_picto_handicap_moteur_inverse.png;[32,32]
Service;"service d'éducation spéciale et de soins à domicile";300002375;"Service d'éducation spéciale et de soins à domicile de l'IME La Cigale";"Handicap moteur";"250 avenue Villard de Honnecourt";30900;Nîmes;30189;Gard;Occitanie;76;4.3604001998901;43.834190368652;http://opendata.onisep.fr/uploads/Image/58/55_831_picto_handicap_moteur_inverse.png;[32,32]
Service;"service d'éducation spéciale et de soins à domicile";120006200;"Service d'éducation spéciale et de soins à domicile de l'IME Les Babissous";"Handicap moteur";Saint-Mayme;12850;Onet-le-Château;12176;Aveyron;Occitanie;76;2.608558;44.373323;http://opendata.onisep.fr/uploads/Image/58/55_831_picto_handicap_moteur_inverse.png;[32,32]
Service;"service d'éducation spéciale et de soins à domicile";180006256;"Service d'éducation spéciale et de soins à domicile de l'Institut d'éducation motrice de Bourges";"Handicap moteur";"place Montesquieu";18000;Bourges;18033;Cher;"Centre-Val de Loire";24;2.398020029068;47.087100982666;http://opendata.onisep.fr/uploads/Image/58/55_831_picto_handicap_moteur_inverse.png;[32,32]
Service;"service d'éducation spéciale et de soins à domicile";740790373;"Service d'éducation spéciale et de soins à domicile de l'Institut Guillaume Belluard";"Handicap moteur";"3 avenue du Capitaine Anjot";74960;Annecy;74010;Haute-Savoie;Auvergne-Rhône-Alpes;84;6.098030090332;45.904041290283;http://opendata.onisep.fr/uploads/Image/58/55_831_picto_handicap_moteur_inverse.png;[32,32]
Service;"service d'éducation spéciale et de soins à domicile";870000312;"Service d'éducation spéciale et de soins à domicile de Limoges";"Handicap moteur";"1 rue Marcel Deprez";87000;Limoges;87085;Haute-Vienne;Nouvelle-Aquitaine;75;1.282039;45.800106;http://opendata.onisep.fr/uploads/Image/58/55_831_picto_handicap_moteur_inverse.png;[32,32]
Service;"service d'éducation spéciale et de soins à domicile";710011099;"Service d'éducation spéciale et de soins à domicile de Mâcon";"Handicap moteur";"177 rue Jules Colin";71000;Mâcon;71270;Saône-et-Loire;Bourgogne-Franche-Comté;27;4.83426;46.31271;http://opendata.onisep.fr/uploads/Image/58/55_831_picto_handicap_moteur_inverse.png;[32,32]
Service;"service d'éducation spéciale et de soins à domicile";030785505;"Service d'éducation spéciale et de soins à domicile de Moulins";"Handicap moteur";"16 rue des Chartreux";3000;Moulins;03190;Allier;Auvergne-Rhône-Alpes;84;3.33244;46.57946;http://opendata.onisep.fr/uploads/Image/58/55_831_picto_handicap_moteur_inverse.png;[32,32]
Service;"service d'éducation spéciale et de soins à domicile";240008342;"Service d'éducation spéciale et de soins à domicile de Périgueux";"Handicap moteur";"4 rue du Combattant d'Indochine";24000;Périgueux;24322;Dordogne;Nouvelle-Aquitaine;75;0.7324384;45.1854773;http://opendata.onisep.fr/uploads/Image/58/55_831_picto_handicap_moteur_inverse.png;[32,32]
Service;"service d'éducation spéciale et de soins à domicile";270011489;"Service d'éducation spéciale et de soins à domicile de Saint-André-de-l'Eure";"Handicap moteur";"1 rue de la Mare Chanceuse";27220;Saint-André-de-l'Eure;27507;Eure;Normandie;28;1.273395;48.894486;http://opendata.onisep.fr/uploads/Image/58/55_831_picto_handicap_moteur_inverse.png;[32,32]
Service;"service d'éducation spéciale et de soins à domicile";350009494;"Service d'éducation spéciale et de soins à domicile de Saint-Malo";"Handicap moteur";"11 rue Claude Bernard";35400;Saint-Malo;35288;Ille-et-Vilaine;Bretagne;53;-2.0222799777985;48.650661468506;http://opendata.onisep.fr/uploads/Image/58/55_831_picto_handicap_moteur_inverse.png;[32,32]
Service;"service d'éducation spéciale et de soins à domicile";890008766;"Service d'éducation spéciale et de soins à domicile de Sens";"Handicap moteur";"35 rue du Mont Saint Bernard";89100;Paron;89287;Yonne;Bourgogne-Franche-Comté;27;3.2597823;48.1910039;http://opendata.onisep.fr/uploads/Image/58/55_831_picto_handicap_moteur_inverse.png;[32,32]
Service;"service d'éducation spéciale et de soins à domicile";770800043;"Service d'éducation spéciale et de soins à domicile de Trilport";"Handicap moteur";"1 rue Mozart";77470;Trilport;77475;Seine-et-Marne;Ile-de-France;11;2.9487099647522;48.957801818848;http://opendata.onisep.fr/uploads/Image/58/55_831_picto_handicap_moteur_inverse.png;[32,32]
Service;"service d'éducation spéciale et de soins à domicile";380018762;"Service d'éducation spéciale et de soins à domicile Défi Jeune 16/25";"Handicap moteur";"3 rue de l'Industrie";38320;Eybens;38158;Isère;Auvergne-Rhône-Alpes;84;5.74321;45.15853;http://opendata.onisep.fr/uploads/Image/58/55_831_picto_handicap_moteur_inverse.png;[32,32]
Service;"service d'éducation spéciale et de soins à domicile";760026237;"Service d'éducation spéciale et de soins à domicile Denis Cordonnier";"Handicap moteur";"3 rue Denis Cordonnier";76600;"Le Havre";76351;Seine-Maritime;Normandie;28;0.10155999660492;49.493419647217;http://opendata.onisep.fr/uploads/Image/58/55_831_picto_handicap_moteur_inverse.png;[32,32]
Service;"service d'éducation spéciale et de soins à domicile";640015434;"Service d'éducation spéciale et de soins à domicile du centre d'Hérauritz";"Handicap moteur";"quartier Hérauritz";64480;Ustaritz;64547;Pyrénées-Atlantiques;Nouvelle-Aquitaine;75;-1.4589099884033;43.398258209229;http://opendata.onisep.fr/uploads/Image/58/55_831_picto_handicap_moteur_inverse.png;[32,32]
Service;"service d'éducation spéciale et de soins à domicile";050007012;"Service d'éducation spéciale et de soins à domicile du Centre Jean Cluzel";"Handicap visuel";"les PEP 05";5160;Savines-le-Lac;05164;Hautes-Alpes;"Provence-Alpes-Côte d'Azur";93;6.404982;44.525913;http://opendata.onisep.fr/uploads/Image/8c/56_870_picto_handicap_visuel_inverse.png;[32,32]
Service;"service d'éducation spéciale et de soins à domicile";640792438;"Service d'éducation spéciale et de soins à domicile du CEOM Aïntzina";"Handicap moteur";"24 rue de Matignon";64340;Boucau;64140;Pyrénées-Atlantiques;Nouvelle-Aquitaine;75;-1.4899300336838;43.523628234863;http://opendata.onisep.fr/uploads/Image/58/55_831_picto_handicap_moteur_inverse.png;[32,32]
Service;"service d'éducation spéciale et de soins à domicile";310019930;"Service d'éducation spéciale et de soins à domicile du CSES Jean Lagarde";"Handicap moteur";"1 avenue Tolosane";31520;Ramonville-Saint-Agne;31446;Haute-Garonne;Occitanie;76;1.4750699996948;43.546211242676;http://opendata.onisep.fr/uploads/Image/58/55_831_picto_handicap_moteur_inverse.png;[32,32]
Service;"service d'éducation spéciale et de soins à domicile";170018204;"Service d'éducation spéciale et de soins à domicile Dysphasie de Rochefort";"Handicap auditif";"128 bis rue du 14 juillet";17300;Rochefort;17299;Charente-Maritime;Nouvelle-Aquitaine;75;-0.9756174;45.937665;http://opendata.onisep.fr/uploads/Image/39/54_801_picto_handicap_auditif_inverse.png;[32,32]
Service;"service d'éducation spéciale et de soins à domicile";350032256;"Service d'éducation spéciale et de soins à domicile Henri Matisse";"Handicap moteur";"31 boulevard du Portugal";35000;Rennes;35238;Ille-et-Vilaine;Bretagne;53;-1.6792999505997;48.111358642578;http://opendata.onisep.fr/uploads/Image/58/55_831_picto_handicap_moteur_inverse.png;[32,32]
Service;"service d'éducation spéciale et de soins à domicile";590033171;"Service d'éducation spéciale et de soins à domicile Jean Grafteaux";"Handicap moteur";"52 rue de Ticleni";59650;Villeneuve-d'Ascq;59009;Nord;Hauts-de-France;32;3.1600999832153;50.614700317383;http://opendata.onisep.fr/uploads/Image/58/55_831_picto_handicap_moteur_inverse.png;[32,32]
Service;"service d'éducation spéciale et de soins à domicile";340798396;"Service d'éducation spéciale et de soins à domicile La Cardabelle";"Handicap moteur";"21 avenue de Castelnau";34000;Montpellier;34172;Hérault;Occitanie;76;3.882386;43.6215771;http://opendata.onisep.fr/uploads/Image/58/55_831_picto_handicap_moteur_inverse.png;[32,32]
Service;"service d'éducation spéciale et de soins à domicile";030004659;"Service d'éducation spéciale et de soins à domicile la Néottie (SESSAD)";"Handicap moteur";"34 rue de Provence";3300;Cusset;03095;Allier;Auvergne-Rhône-Alpes;84;3.442796;46.127351;http://opendata.onisep.fr/uploads/Image/58/55_831_picto_handicap_moteur_inverse.png;[32,32]
Service;"service d'éducation spéciale et de soins à domicile";970104733;"Service d'éducation spéciale et de soins à domicile Lanbeli";"Handicap moteur";"158 rue des Rameaux";97139;"Les Abymes";97101;Guadeloupe;Guadeloupe;1;-61.494083;16.290918;http://opendata.onisep.fr/uploads/Image/58/55_831_picto_handicap_moteur_inverse.png;[32,32]
Service;"service d'éducation spéciale et de soins à domicile";210986485;"Service d'éducation spéciale et de soins à domicile le sapin bleu";"Handicap moteur";"2 rue Eric Tabarly";21500;Montbard;21425;Côte-d'Or;Bourgogne-Franche-Comté;27;4.334344;47.632074;http://opendata.onisep.fr/uploads/Image/58/55_831_picto_handicap_moteur_inverse.png;[32,32]
Service;"service d'éducation spéciale et de soins à domicile";380016287;"Service d'éducation spéciale et de soins à domicile les sept collines";"Handicap moteur";"12 boulevard Asiaticus";38200;Vienne;38544;Isère;Auvergne-Rhône-Alpes;84;4.86959;45.52065;http://opendata.onisep.fr/uploads/Image/58/55_831_picto_handicap_moteur_inverse.png;[32,32]
Service;"service d'éducation spéciale et de soins à domicile";370005506;"Service d'éducation spéciale et de soins à domicile Mirabeau";"Handicap moteur";"8 rue Jean-Goujon";37000;Tours;37261;Indre-et-Loire;"Centre-Val de Loire";24;0.70038914680481;47.393061966982;http://opendata.onisep.fr/uploads/Image/58/55_831_picto_handicap_moteur_inverse.png;[32,32]
Service;"service d'éducation spéciale et de soins à domicile";160006979;"Service d'éducation spéciale et de soins à domicile Rêve d'enfants";"Handicap moteur";"27 rue du Stade";16400;"La Couronne";16113;Charente;Nouvelle-Aquitaine;75;0.0956063;45.6043026;http://opendata.onisep.fr/uploads/Image/58/55_831_picto_handicap_moteur_inverse.png;[32,32]
Service;"service d'éducation spéciale et de soins à domicile";070005145;"Service d'éducation spécialisé et de soins à domicile 1, 2, 3 Soleil !";"Handicap moteur";"10 avenue de Boisvignal";7200;Aubenas;07019;Ardèche;Auvergne-Rhône-Alpes;84;4.3932171;44.617082;http://opendata.onisep.fr/uploads/Image/58/55_831_picto_handicap_moteur_inverse.png;[32,32]
Service;"service d'éducation spéciale et de soins à domicile";590006821;"Service d'éducation spécialisée et de soins à domicile de Valenciennes";"Handicap moteur";"2 rue René-Mirland";59300;Valenciennes;59606;Nord;Hauts-de-France;32;3.5231800079346;50.357398986816;http://opendata.onisep.fr/uploads/Image/58/55_831_picto_handicap_moteur_inverse.png;[32,32]
Service;"service d'éducation spéciale et de soins à domicile";020008389;"Service d'éducation spécialisée et de soins à domicile IMC de Soissons";"Handicap moteur";"10 rue de la Paix";2200;Soissons;02722;Aisne;Hauts-de-France;32;3.331789970398;49.378799438477;http://opendata.onisep.fr/uploads/Image/58/55_831_picto_handicap_moteur_inverse.png;[32,32]
Service;"service d'éducation spéciale et de soins à domicile";910018506;"Service d'éducation spécialisée et de soins à domicile Le Tremplin de l'IME Jean-Paul";"Handicap visuel";"3 boulevard de l'Yerres";91000;Evry-Courcouronnes;91228;Essonne;Ile-de-France;11;2.4336312;48.6148326;http://opendata.onisep.fr/uploads/Image/8c/56_870_picto_handicap_visuel_inverse.png;[32,32]
Service;"service d'éducation spéciale et de soins à domicile";920023041;"Service d'intégration des aveugles et malvoyants des Hauts de Seine (SAAAIS)";"Handicap visuel";"14 avenue du Général de Gaulle";92150;Suresnes;92073;Hauts-de-Seine;Ile-de-France;11;2.225800037384;48.86877822876;http://opendata.onisep.fr/uploads/Image/8c/56_870_picto_handicap_visuel_inverse.png;[32,32]
Service;"service d'éducation spéciale et de soins à domicile";750044042;"Service d'intégration des enfants aveugles et malvoyants de Paris (SAFEP)";"Handicap visuel";"88 avenue Denfert Rochereau";75014;Paris;75100;Paris;Ile-de-France;11;2.3231999874115;48.831699371338;http://opendata.onisep.fr/uploads/Image/8c/56_870_picto_handicap_visuel_inverse.png;[32,32]
Service;"service d'éducation spéciale et de soins à domicile";780802237;"Service d'intégration pour aveugles et malvoyants, antenne de Poissy (SAAAIS)";"Handicap visuel";"61 boulevard Victor Hugo";78300;Poissy;78498;Yvelines;Ile-de-France;11;2.04595;48.92777;http://opendata.onisep.fr/uploads/Image/8c/56_870_picto_handicap_visuel_inverse.png;[32,32]
Service;"service d'éducation spéciale et de soins à domicile";410007769;"Service de soins et d'aide à l'intégration de Blois";"Handicap visuel";"21 rue du Pressoir Blanc";41000;Blois;41018;Loir-et-Cher;"Centre-Val de Loire";24;1.32;47.58577;http://opendata.onisep.fr/uploads/Image/8c/56_870_picto_handicap_visuel_inverse.png;[32,32]
Service;"service d'éducation spéciale et de soins à domicile";680012994;"Service de soins et d'éducation spécialisée à domicile ARAHM 68";"Handicap moteur";"31 rue de la Semm";68000;Colmar;68066;Haut-Rhin;Grand-Est;44;;;http://opendata.onisep.fr/uploads/Image/58/55_831_picto_handicap_moteur_inverse.png;[32,32]
Service;"service d'éducation spéciale et de soins à domicile";750700064;"Service de soins et d'éducation spécialisés de Paris";"Handicap moteur";"2 rue Pajol";75018;Paris;75100;Paris;Ile-de-France;11;2.3510000705719;48.891700744629;http://opendata.onisep.fr/uploads/Image/58/55_831_picto_handicap_moteur_inverse.png;[32,32]
Service;"service d'éducation spéciale et de soins à domicile";620019026;"Service de soutien à l'éducation familiale et à l'intégration scolaire de Boulogne-sur-Mer";"Handicap auditif";"61 rue de l'Aspirant Laugerans";62200;Boulogne-sur-Mer;62160;Pas-de-Calais;Hauts-de-France;32;1.6148833;50.7256046;http://opendata.onisep.fr/uploads/Image/39/54_801_picto_handicap_auditif_inverse.png;[32,32]
Service;"service d'éducation spéciale et de soins à domicile";860784461;"Service de soutien à l'éducation familiale et à l'intégration scolaire de l'IRJS du Poitou-Charentes";"Handicap auditif";"116 avenue de la Libération";86000;Poitiers;86194;Vienne;Nouvelle-Aquitaine;75;0.33008998632431;46.582981109619;http://opendata.onisep.fr/uploads/Image/39/54_801_picto_handicap_auditif_inverse.png;[32,32]
Service;"service d'éducation spéciale et de soins à domicile";840013536;"Service de soutien à l'éducation familiale et à l'intégration scolaire de Sorgues";"Handicap auditif";"178 avenue Lépine";84700;Sorgues;84129;Vaucluse;"Provence-Alpes-Côte d'Azur";93;4.895966;43.9900556;http://opendata.onisep.fr/uploads/Image/39/54_801_picto_handicap_auditif_inverse.png;[32,32]
Service;"service d'éducation spéciale et de soins à domicile";850024787;"Service de soutien à l'éducation familiale et à l'intégration scolaire La Roche-sur-Yon";"Handicap auditif";"136 boulevard Rivoli";85000;"La Roche-sur-Yon";85191;Vendée;"Pays de la Loire";52;-1.4295090436935;46.675930023193;http://opendata.onisep.fr/uploads/Image/39/54_801_picto_handicap_auditif_inverse.png;[32,32]
Service;"service d'éducation spéciale et de soins à domicile";240004051;"Service de soutien à l'éducation familiale et à la scolarisation Ailhaud Castelet";"Handicap auditif";"rue des Alsaciens";24755;"Boulazac Isle Manoire";24053;Dordogne;Nouvelle-Aquitaine;75;0.7471326;45.181978;http://opendata.onisep.fr/uploads/Image/39/54_801_picto_handicap_auditif_inverse.png;[32,32]
Service;"service d'éducation spéciale et de soins à domicile";210010534;"Service de soutien à l'éducation familiale et à la scolarisation Clos Chauveau";"Handicap auditif";"9 rue du Fort de la Motte Giron";21000;Dijon;21231;Côte-d'Or;Bourgogne-Franche-Comté;27;5.038959980011;47.322151184082;http://opendata.onisep.fr/uploads/Image/39/54_801_picto_handicap_auditif_inverse.png;[32,32]
Service;"service d'éducation spéciale et de soins à domicile";410003479;"Service de soutien à l'éducation familiale et à la scolarisation de Blois";"Handicap auditif";"1 rue de la Vallée Maillard";41000;Blois;41018;Loir-et-Cher;"Centre-Val de Loire";24;1.3276254;47.6104111;http://opendata.onisep.fr/uploads/Image/39/54_801_picto_handicap_auditif_inverse.png;[32,32]
Service;"service d'éducation spéciale et de soins à domicile";770790194;"Service de soutien à l'éducation familiale et à la scolarisation de l'établissement Montaigu";"Handicap auditif";"30 avenue Georges Pompidou";77000;Melun;77288;Seine-et-Marne;Ile-de-France;11;2.6606299877167;48.542819976807;http://opendata.onisep.fr/uploads/Image/39/54_801_picto_handicap_auditif_inverse.png;[32,32]
Service;"service d'éducation spéciale et de soins à domicile";970405221;"Service de soutien à l'éducation familiale et à la scolarisation de l'IES La Ressource";"Handicap auditif";"216 boulevard Jean Jaurès";97438;Sainte-Marie;97418;"La Réunion";"La Réunion";4;55.54999923706;-20.88330078125;http://opendata.onisep.fr/uploads/Image/39/54_801_picto_handicap_auditif_inverse.png;[32,32]
Service;"service d'éducation spéciale et de soins à domicile";890973126;"Service de soutien à l'éducation familiale et à la scolarisation de l'IESHA d'Auxerre";"Handicap auditif";"19 rue Pierre et Marie Curie";89000;Auxerre;89024;Yonne;Bourgogne-Franche-Comté;27;3.5715999603272;47.79354095459;http://opendata.onisep.fr/uploads/Image/39/54_801_picto_handicap_auditif_inverse.png;[32,32]
Service;"service d'éducation spéciale et de soins à domicile";730002219;"Service de soutien à l'éducation familiale et à la scolarisation de l'INJS de Chambéry";"Handicap auditif";"33 rue de l'Epine";73160;Cognin;73087;Savoie;Auvergne-Rhône-Alpes;84;5.8820600509644;45.59252166748;http://opendata.onisep.fr/uploads/Image/39/54_801_picto_handicap_auditif_inverse.png;[32,32]
Service;"service d'éducation spéciale et de soins à domicile";920025475;"Service de soutien à l'éducation familiale et à la scolarisation de l'Institut Gustave Baguer";"Handicap auditif";"35 rue de Nanterre";92600;Asnières-sur-Seine;92004;Hauts-de-Seine;Ile-de-France;11;2.2890200614929;48.910301208496;http://opendata.onisep.fr/uploads/Image/39/54_801_picto_handicap_auditif_inverse.png;[32,32]
Service;"service d'éducation spéciale et de soins à domicile";370101164;"Service de soutien à l'éducation familiale et à la scolarisation de l'IRECOV Beau Site";"Handicap auditif";"31 rue de la Loire";37075;Tours;37261;Indre-et-Loire;"Centre-Val de Loire";24;0.68923002481461;47.390441894531;http://opendata.onisep.fr/uploads/Image/39/54_801_picto_handicap_auditif_inverse.png;[32,32]
Service;"service d'éducation spéciale et de soins à domicile";380000521;"Service de soutien à l'éducation familiale et à la scolarisation de l'Isère";"Handicap auditif";"4 rue Voltaire";38320;Eybens;38158;Isère;Auvergne-Rhône-Alpes;84;;;http://opendata.onisep.fr/uploads/Image/39/54_801_picto_handicap_auditif_inverse.png;[32,32]
Service;"service d'éducation spéciale et de soins à domicile";400008249;"Service de soutien à l'éducation familiale et à la scolarisation des Landes";"Handicap auditif";"76 allée des Caroubiers";40000;Mont-de-Marsan;40192;Landes;Nouvelle-Aquitaine;75;;;http://opendata.onisep.fr/uploads/Image/39/54_801_picto_handicap_auditif_inverse.png;[32,32]
Service;"service d'éducation spéciale et de soins à domicile";330012279;"Service de soutien à l'éducation familiale et à la scolarisation du CAL de Mérignac";"Handicap auditif";"133 avenue Bon-Air";33700;Mérignac;33281;Gironde;Nouvelle-Aquitaine;75;-0.64762002229691;44.84098815918;http://opendata.onisep.fr/uploads/Image/39/54_801_picto_handicap_auditif_inverse.png;[32,32]
Service;"service d'éducation spéciale et de soins à domicile";750043986;"Service de soutien à l'éducation familiale et à la scolarisation du Centre Augustin Grosselin";"Handicap auditif";"5-15 rue Olivier Noyer";75013;Paris;75100;Paris;Ile-de-France;11;2.3666000366211;48.82740020752;http://opendata.onisep.fr/uploads/Image/39/54_801_picto_handicap_auditif_inverse.png;[32,32]
Service;"service d'éducation spéciale et de soins à domicile";670798297;"Service de soutien à l'éducation familiale et à la scolarisation du Centre Jacoutôt";"Handicap auditif";"80 avenue du Neuhof";67100;Strasbourg;67482;Bas-Rhin;Grand-Est;44;7.766900062561;48.558700561523;http://opendata.onisep.fr/uploads/Image/39/54_801_picto_handicap_auditif_inverse.png;[32,32]
Service;"service d'éducation spéciale et de soins à domicile";750043895;"Service de soutien à l'éducation familiale et à la scolarisation du Centre plurihandicap";"Handicap auditif";"33 rue Daviel";75013;Paris;75100;Paris;Ile-de-France;11;2.3666000366211;48.82740020752;http://opendata.onisep.fr/uploads/Image/39/54_801_picto_handicap_auditif_inverse.png;[32,32]
Service;"service d'éducation spéciale et de soins à domicile";910018175;"Service de soutien à l'éducation familiale et à la scolarisation du Centre Surdité Langage A.Camus";"Handicap auditif";"allée de Nancy";91300;Massy;91377;Essonne;Ile-de-France;11;2.2720799446106;48.730529785156;http://opendata.onisep.fr/uploads/Image/39/54_801_picto_handicap_auditif_inverse.png;[32,32]
Service;"service d'éducation spéciale et de soins à domicile";310780655;"Service de soutien à l'éducation familiale et à la scolarisation du CESDDA Paulin Andrieu";"Handicap auditif";"25 rue des 36 ponts";31400;Toulouse;31555;Haute-Garonne;Occitanie;76;1.4432499408722;43.604900360107;http://opendata.onisep.fr/uploads/Image/39/54_801_picto_handicap_auditif_inverse.png;[32,32]
Service;"service d'éducation spéciale et de soins à domicile";800016909;"Service de soutien à l'éducation familiale et à la scolarisation du CREDA d'Amiens";"Handicap auditif";"181 rue Jean Jaurès";80016;Amiens;80021;Somme;Hauts-de-France;32;2.2301112;49.9171858;http://opendata.onisep.fr/uploads/Image/39/54_801_picto_handicap_auditif_inverse.png;[32,32]
Service;"service d'éducation spéciale et de soins à domicile";500019559;"Service de soutien à l'éducation familiale et à la scolarisation du CROP de Saint-Lô";"Handicap auditif";"82 rue du Neufbourg";50000;Saint-Lô;50502;Manche;Normandie;28;-1.0922889709473;49.116458892822;http://opendata.onisep.fr/uploads/Image/39/54_801_picto_handicap_auditif_inverse.png;[32,32]
Service;"service d'éducation spéciale et de soins à domicile";020004610;"Service de soutien à l'éducation familiale et à la scolarisation du Pôle auditif de Saint-Quentin";"Handicap auditif";"59 rue Voltaire";2100;Saint-Quentin;02691;Aisne;Hauts-de-France;32;3.2884;49.843032;http://opendata.onisep.fr/uploads/Image/39/54_801_picto_handicap_auditif_inverse.png;[32,32]
Service;"service d'éducation spéciale et de soins à domicile";290019991;"Service de soutien à l'éducation familiale et à la scolarité de l'IES de Brest";"Handicap auditif";"12 rue de Cherbourg";29200;Brest;29019;Finistère;Bretagne;53;-4.5016604;48.3817207;http://opendata.onisep.fr/uploads/Image/39/54_801_picto_handicap_auditif_inverse.png;[32,32]
Etablissement;"Etablissement médicosocial";570002618;"Service de soutien à l'intégration des jeunes avec handicaps associés et à leur famille de l'INJS de Metz";"Handicap auditif";"49 rue Claude Bernard";57074;Metz;57463;Moselle;Grand-Est;44;6.2186599;49.110024;http://opendata.onisep.fr/uploads/Image/08/51_780_picto_handicap_auditif.png;[32,32]
Service;"service d'éducation spéciale et de soins à domicile";560022287;"Service pour jeunes déficients visuels d'Auray";"Handicap visuel";Brec'h;56402;Auray;56007;Morbihan;Bretagne;53;-2.9844288825989;47.66695022583;http://opendata.onisep.fr/uploads/Image/8c/56_870_picto_handicap_visuel_inverse.png;[32,32]
Service;"service d'éducation spéciale et de soins à domicile";340798107;"SESSAD du centre médico-éducatif de l'enfance Fontcaude";"Handicap moteur";"70 rue de Tipaza";34080;Montpellier;34172;Hérault;Occitanie;76;3.81708;43.62907;http://opendata.onisep.fr/uploads/Image/58/55_831_picto_handicap_moteur_inverse.png;[32,32]
Service;"service d'éducation spéciale et de soins à domicile";870015765;"SSEFIS de l'Association régionale pour l'éducation sensorielle";"Handicap auditif";"1 rue Henri Barbusse";87000;Limoges;87085;Haute-Vienne;Nouvelle-Aquitaine;75;1.2332999706268;45.843601226807;http://opendata.onisep.fr/uploads/Image/39/54_801_picto_handicap_auditif_inverse.png;[32,32]
Service;"service d'éducation spéciale et de soins à domicile";330780941;"SSEFIS de l'INJS de Bordeaux, antenne du Lot-et-Garonne";"Handicap auditif";"750 avenue du Docteur Jean Bru";47000;Agen;47001;Lot-et-Garonne;Nouvelle-Aquitaine;75;;;http://opendata.onisep.fr/uploads/Image/39/54_801_picto_handicap_auditif_inverse.png;[32,32]
Service;"service d'éducation spéciale et de soins à domicile";680017464;"SSEFS de l'institut pour déficients sensoriels et dysphasiques le Phare";"Handicap auditif";"16 rue de Kingersheim";68110;Illzach;68154;Haut-Rhin;Grand-Est;44;7.3469800949097;47.781440734863;http://opendata.onisep.fr/uploads/Image/39/54_801_picto_handicap_auditif_inverse.png;[32,32]
Etablissement;"Etablissement médicosocial";350012969;"Centre Angèle Vannier";"Handicap visuel";"5 rue Albert Martin";35000;Rennes;35238;Ille-et-Vilaine;Bretagne;53;-1.6792999505997;48.111358642578;http://opendata.onisep.fr/uploads/Image/28/53_852_picto_handicap_visuel.png;[32,32]
Etablissement;"Etablissement médicosocial";780690228;"Centre Claire Girard, antenne de Viroflay";"Handicap moteur";"13 rue de Chanzy";78220;Viroflay;78686;Yvelines;Ile-de-France;11;2.1781897;48.798448;http://opendata.onisep.fr/uploads/Image/88/52_819_picto_handicap_moteur.png;[32,32]
Etablissement;"Centre d'action médico-sociale précoce";690794789;"Centre d'action médico-sociale pour déficients visuels de Villeurbanne";"Handicap visuel";"158 rue du 4 août 1789";69100;Villeurbanne;69266;Rhône;Auvergne-Rhône-Alpes;84;4.8917577;45.764585;http://opendata.onisep.fr/uploads/Image/28/53_852_picto_handicap_visuel.png;[32,32]
Etablissement;"Centre d'action médico-sociale précoce";590791745;"Centre d'action médico-sociale précoce d'Anzin";"Handicap moteur";"56 rue Jean Jaurès";59410;Anzin;59014;Nord;Hauts-de-France;32;3.51227;50.36918;http://opendata.onisep.fr/uploads/Image/88/52_819_picto_handicap_moteur.png;[32,32]
Etablissement;"Centre d'action médico-sociale précoce";140008046;"Centre d'action médico-sociale précoce de Bretteville-sur-Odon";"Handicap auditif";"6 avenue de Glattbach";14760;Bretteville-sur-Odon;14101;Calvados;Normandie;28;-0.41249999403954;49.166889190674;http://opendata.onisep.fr/uploads/Image/08/51_780_picto_handicap_auditif.png;[32,32]
Etablissement;"Centre d'action médico-sociale précoce";500019559;"Centre d'action médico-sociale précoce de Bretteville-sur-Odon, antenne de Cherbourg";"Handicap auditif";"26 rue du Château";50000;Cherbourg-en-Cotentin;50129;Manche;Normandie;28;-1.6164200305939;49.639198303223;http://opendata.onisep.fr/uploads/Image/08/51_780_picto_handicap_auditif.png;[32,32]
Etablissement;"Centre d'action médico-sociale précoce";130799695;"Centre d'action médico-sociale précoce de l'hôpital Salvator de Marseille, section déficience auditive";"Handicap auditif";"249 boulevard Sainte Marguerite";13009;Marseille;13200;Bouches-du-Rhône;"Provence-Alpes-Côte d'Azur";93;5.41157;43.263037;http://opendata.onisep.fr/uploads/Image/08/51_780_picto_handicap_auditif.png;[32,32]
Etablissement;"Centre d'action médico-sociale précoce";970104527;"Centre d'action médico-sociale précoce de Pointe-à-Pitre";"Handicap moteur";"CHU Pointe à Pitre Villa N°3";97110;Pointe-à-Pitre;97120;Guadeloupe;Guadeloupe;1;-61.526439;16.238575;http://opendata.onisep.fr/uploads/Image/88/52_819_picto_handicap_moteur.png;[32,32]
Etablissement;"Centre d'action médico-sociale précoce";590791083;"Centre d'action médico-sociale précoce Epi de Soil";"Handicap visuel";"31 avenue Pierre Mauroy";59120;Loos;59360;Nord;Hauts-de-France;32;3.03687;50.59923;http://opendata.onisep.fr/uploads/Image/28/53_852_picto_handicap_visuel.png;[32,32]
Etablissement;"Centre d'action médico-sociale précoce";350028619;"Centre d'action médico-sociale précoce Kerveiza";"Handicap auditif";"1 rue Louvain";35703;Rennes;35238;Ille-et-Vilaine;Bretagne;53;-1.6792999505997;48.111358642578;http://opendata.onisep.fr/uploads/Image/08/51_780_picto_handicap_auditif.png;[32,32]
Etablissement;"Centre d'action médico-sociale précoce";590791034;"Centre d'action médico-sociale précoce Montfort, antenne de Mons en Baroeul";"Handicap auditif";"avenue René Coty";59370;Mons-en-Baroeul;59410;Nord;Hauts-de-France;32;3.11209;50.64207;http://opendata.onisep.fr/uploads/Image/08/51_780_picto_handicap_auditif.png;[32,32]
Etablissement;"Centre d'action médico-sociale précoce";810004184;"Centre d'action médico-sociale précoce spécialisé du CSDA d'Albi";"Handicap auditif";"1 rue de Lavazière";81025;Albi;81004;Tarn;Occitanie;76;2.1480396;43.9165108;http://opendata.onisep.fr/uploads/Image/08/51_780_picto_handicap_auditif.png;[32,32]
Etablissement;"Etablissement médicosocial";750690372;"Centre d'éducation du langage pour enfants malentendants";"Handicap auditif";"24 rue de Clichy";75009;Paris;75100;Paris;Ile-de-France;11;2.340399980545;48.880100250244;http://opendata.onisep.fr/uploads/Image/08/51_780_picto_handicap_auditif.png;[32,32]
Etablissement;"Etablissement médicosocial";590787024;"Centre d'éducation motrice de Maubeuge";"Handicap moteur";"boulevard Molière";59600;Maubeuge;59392;Nord;Hauts-de-France;32;;;http://opendata.onisep.fr/uploads/Image/88/52_819_picto_handicap_moteur.png;[32,32]
Etablissement;"Etablissement médicosocial";740781059;"Centre d'éducation motrice Institut Guillaume Belluard";"Handicap moteur";"3 avenue du Capitaine Anjot";74960;Annecy;74010;Haute-Savoie;Auvergne-Rhône-Alpes;84;6.098030090332;45.904041290283;http://opendata.onisep.fr/uploads/Image/88/52_819_picto_handicap_moteur.png;[32,32]
Etablissement;"Etablissement médicosocial";690781133;"Centre d'éducation motrice Jean-Marie Arnion";"Handicap moteur";"2023 route des Bois";69380;Dommartin;69076;Rhône;Auvergne-Rhône-Alpes;84;4.7157201766968;45.834011077881;http://opendata.onisep.fr/uploads/Image/88/52_819_picto_handicap_moteur.png;[32,32]
Etablissement;"Etablissement médicosocial";250004728;"Centre d'éducation pour enfants déficients auditifs de Besançon, antenne de Montbéliard";"Handicap auditif";"5 rue Bizet";25200;Montbéliard;25388;Doubs;Bourgogne-Franche-Comté;27;6.80019;47.50328;http://opendata.onisep.fr/uploads/Image/08/51_780_picto_handicap_auditif.png;[32,32]
Etablissement;"Etablissement médicosocial";610780231;"Centre d'éducation spécialisée la Providence";"Handicap auditif";"103 chemin des Planches";61005;Alençon;61001;Orne;Normandie;28;0.0663575;48.4373683;http://opendata.onisep.fr/uploads/Image/08/51_780_picto_handicap_auditif.png;[32,32]
Etablissement;"Etablissement médicosocial";310780655;"Centre d'éducation spécialisée pour dysphasiques et déficients auditifs Paulin Andrieu";"Handicap auditif";"25 rue des 36 ponts";31400;Toulouse;31555;Haute-Garonne;Occitanie;76;1.4432499408722;43.604900360107;http://opendata.onisep.fr/uploads/Image/08/51_780_picto_handicap_auditif.png;[32,32]
Etablissement;"Etablissement médicosocial";970111290;"Centre de basse vision Guadeloupe";"Handicap visuel";"20 rue Baudot";97100;Basse-Terre;97105;Guadeloupe;Guadeloupe;1;-61.731792;15.997828;http://opendata.onisep.fr/uploads/Image/28/53_852_picto_handicap_visuel.png;[32,32]
Etablissement;"Etablissement de santé";290000793;"Centre de médecine physique et de rééducation pédiatrique";"Handicap moteur";"27 rue Mathieu Donnart";29200;Brest;29019;Finistère;Bretagne;53;-4.4853901863098;48.391021728516;http://opendata.onisep.fr/uploads/Image/88/52_819_picto_handicap_moteur.png;[32,32]
Etablissement;"Etablissement médicosocial";080007248;"Centre de réadaptation motrice pour enfants de Warnecourt";"Handicap moteur";"147 route de Charleville";8090;Warnécourt;08498;Ardennes;Grand-Est;44;4.6504402160644;49.732490539551;http://opendata.onisep.fr/uploads/Image/88/52_819_picto_handicap_moteur.png;[32,32]
Etablissement;"Etablissement médicosocial";300780657;"Centre de rééducation de l'ouïe et de la parole Paul Bouvier, antenne de Béziers";"Handicap auditif";"5 rue Marcellin Albert";34500;Béziers;34032;Hérault;Occitanie;76;3.23666;43.35171;http://opendata.onisep.fr/uploads/Image/08/51_780_picto_handicap_auditif.png;[32,32]
Etablissement;"Etablissement médicosocial";510002421;"Centre de rééducation motrice Val de Murigny";"Handicap moteur";"42 boulevard Edmond Michelet";51100;Reims;51454;Marne;Grand-Est;44;4.0264401435852;49.256481170654;http://opendata.onisep.fr/uploads/Image/88/52_819_picto_handicap_moteur.png;[32,32]
Etablissement;"Etablissement médicosocial";760914952;"Centre départemental de l'enfance - Service d'enseignement pour jeunes sourds";"Handicap auditif";"route de Sahurs";76380;Canteleu;76157;Seine-Maritime;Normandie;28;1.0347199440002;49.450500488281;http://opendata.onisep.fr/uploads/Image/08/51_780_picto_handicap_auditif.png;[32,32]
Etablissement;"Etablissement médicosocial";120780267;"Centre départemental pour déficients sensoriels de Rodez";"Handicap auditif";"15 boulevard François Fabié";12000;Rodez;12202;Aveyron;Occitanie;76;2.5721299648285;44.351039886475;http://opendata.onisep.fr/uploads/Image/08/51_780_picto_handicap_auditif.png;[32,32]
Etablissement;"Etablissement médicosocial";220012975;"Centre Hélio-Marin de Plérin";"Handicap moteur";"17 rue du Docteur Violette";22190;Plérin;22187;Côtes-d'Armor;Bretagne;53;-2.7708899974823;48.538738250732;http://opendata.onisep.fr/uploads/Image/88/52_819_picto_handicap_moteur.png;[32,32]
Etablissement;"Etablissement médicosocial";310781703;"Centre interdépartemental de la vision, de l'audition et du langage";"Handicap auditif";"3 rue du Bac";31522;Ramonville-Saint-Agne;31446;Haute-Garonne;Occitanie;76;1.4750699996948;43.546211242676;http://opendata.onisep.fr/uploads/Image/08/51_780_picto_handicap_auditif.png;[32,32]
Etablissement;"Etablissement médicosocial";220000434;"Centre Jacques Cartier";"Handicap auditif";"20 rue du Vau Méno";22070;Saint-Brieuc;22278;Côtes-d'Armor;Bretagne;53;-2.7600290775299;48.509140014648;http://opendata.onisep.fr/uploads/Image/08/51_780_picto_handicap_auditif.png;[32,32]
Etablissement;"Etablissement de santé";010780492;"Centre médical de rééducation pédiatrique Romans-Ferrari";"Handicap moteur";"rue de la Chanal";1700;Miribel;01249;Ain;Auvergne-Rhône-Alpes;84;4.9559102058411;45.825119018555;http://opendata.onisep.fr/uploads/Image/88/52_819_picto_handicap_moteur.png;[32,32]
Etablissement;"Etablissement de santé";630009207;"Centre médical infantile de Romagnat";"Handicap moteur";"3 rue de la Prugne";63540;Romagnat;63307;Puy-de-Dôme;Auvergne-Rhône-Alpes;84;3.1027600765228;45.730621337891;http://opendata.onisep.fr/uploads/Image/88/52_819_picto_handicap_moteur.png;[32,32]
Etablissement;"Etablissement médicosocial";2B0004733;"Centre pour déficients auditifs et visuels la Citadelle";"Handicap visuel";"Ecole du Chiostru";20200;Bastia;2B033;Haute-Corse;Corse;94;9.4508800506592;42.702201843262;http://opendata.onisep.fr/uploads/Image/28/53_852_picto_handicap_visuel.png;[32,32]
Etablissement;"Etablissement médicosocial";600104962;"Centre Rabelais langage et intégration";"Handicap auditif";"577 rue de la Croix Verte";60600;Agnetz;60007;Oise;Hauts-de-France;32;2.3856399059296;49.381561279297;http://opendata.onisep.fr/uploads/Image/08/51_780_picto_handicap_auditif.png;[32,32]
Etablissement;"Etablissement médicosocial";130784440;"Centre Saint-Thys";"Handicap moteur";"24 traverse des Pionniers";13010;Marseille;13200;Bouches-du-Rhône;"Provence-Alpes-Côte d'Azur";93;5.4323000907898;43.277599334717;http://opendata.onisep.fr/uploads/Image/88/52_819_picto_handicap_moteur.png;[32,32]
Etablissement;"Etablissement médicosocial";810002188;"Centre spécialisé pour déficients auditifs d'Albi";"Handicap auditif";"1 rue de Lavazière";81025;Albi;81004;Tarn;Occitanie;76;2.1466684341431;43.921525074202;http://opendata.onisep.fr/uploads/Image/08/51_780_picto_handicap_auditif.png;[32,32]
Etablissement;"Etablissement médicosocial";950690198;"Ecole intégrée Danielle Casanova";"Handicap auditif";"22-26 rue de Picardie";95100;Argenteuil;95018;Val-d'Oise;Ile-de-France;11;2.2481899261475;48.942840576172;http://opendata.onisep.fr/uploads/Image/08/51_780_picto_handicap_auditif.png;[32,32]
Service;"service d'éducation spéciale et de soins à domicile";190002782;"Equipe d'éducation spécialisée et de soins à domicile de Tulle-Ussel";"Handicap visuel";"rue de l'Abbé Lair";19000;Tulle;19272;Corrèze;Nouvelle-Aquitaine;75;1.764;45.26152;http://opendata.onisep.fr/uploads/Image/8c/56_870_picto_handicap_visuel_inverse.png;[32,32]
Etablissement;"Etablissement médicosocial";330780891;"Etablissement de soins éducatifs spécialisés Biré-Cassagne";"Handicap moteur";"12 rue du Maréchal Gallieni";33150;Cenon;33119;Gironde;Nouvelle-Aquitaine;75;-0.5325177;44.8469444;http://opendata.onisep.fr/uploads/Image/88/52_819_picto_handicap_moteur.png;[32,32]
Etablissement;"Etablissement médicosocial";330783101;"Etablissement de soins éducatifs spécialisés Biré-Cassagne, antenne de Tresses";"Handicap moteur";"35 chemin de Comtesse";33370;Tresses;33535;Gironde;Nouvelle-Aquitaine;75;-0.48266;44.84351;http://opendata.onisep.fr/uploads/Image/88/52_819_picto_handicap_moteur.png;[32,32]
Etablissement;"Etablissement médicosocial";770790194;"Etablissement Montaigu";"Handicap auditif";"30 avenue Georges Pompidou";77000;Melun;77288;Seine-et-Marne;Ile-de-France;11;2.6606299877167;48.542819976807;http://opendata.onisep.fr/uploads/Image/08/51_780_picto_handicap_auditif.png;[32,32]
Etablissement;"Etablissement médicosocial";920800141;"Externat médico-professionnel les Résonances";"Handicap auditif";"10 rue Pasteur";92210;Saint-Cloud;92064;Hauts-de-Seine;Ile-de-France;11;2.2193200588226;48.844318389893;http://opendata.onisep.fr/uploads/Image/08/51_780_picto_handicap_auditif.png;[32,32]
Etablissement;"Etablissement médicosocial";670780261;"Institut Bruckhof";"Handicap auditif";"7 rue de Soulz";67100;Strasbourg;67482;Bas-Rhin;Grand-Est;44;7.766900062561;48.558700561523;http://opendata.onisep.fr/uploads/Image/08/51_780_picto_handicap_auditif.png;[32,32]
Etablissement;"Etablissement médicosocial";650780604;"Institut d'éducation motrice Adolphe Pedebidou, antenne de Tarbes";"Handicap moteur";"rue Maurane Saulnier";65000;Tarbes;65440;Hautes-Pyrénées;Occitanie;76;0.04393;43.2213;http://opendata.onisep.fr/uploads/Image/88/52_819_picto_handicap_moteur.png;[32,32]
Etablissement;"Etablissement médicosocial";2A0000410;"Institut d'éducation motrice d'Ajaccio";"Handicap moteur";"route d'Alata";20000;Ajaccio;2A004;Corse-du-Sud;Corse;94;8.74880027771;41.936100006104;http://opendata.onisep.fr/uploads/Image/88/52_819_picto_handicap_moteur.png;[32,32]
Etablissement;"Etablissement médicosocial";620115600;"Institut d'éducation motrice de Berck-sur-Mer";"Handicap moteur";"avenue Saint-Exupéry";62600;Berck;62108;Pas-de-Calais;Hauts-de-France;32;1.5627717;50.4009414;http://opendata.onisep.fr/uploads/Image/88/52_819_picto_handicap_moteur.png;[32,32]
Etablissement;"Etablissement médicosocial";290004027;"Institut d'éducation motrice de Dirinon";"Handicap moteur";"Le Roual";29460;Dirinon;29045;Finistère;Bretagne;53;-4.2680802345276;48.398071289062;http://opendata.onisep.fr/uploads/Image/88/52_819_picto_handicap_moteur.png;[32,32]
Etablissement;"Etablissement médicosocial";350044798;"Institut d'éducation motrice de La Bouëxière";"Handicap moteur";"Le Carfour";35340;"La Bouëxière";35031;Ille-et-Vilaine;Bretagne;53;-1.4618388;48.1859679;http://opendata.onisep.fr/uploads/Image/88/52_819_picto_handicap_moteur.png;[32,32]
Etablissement;"Etablissement médicosocial";440000750;"Institut d'éducation motrice de Nantes";"Handicap moteur";"94 rue de la Marrière";44319;Nantes;44109;Loire-Atlantique;"Pays de la Loire";52;-1.6097999811173;47.202098846435;http://opendata.onisep.fr/uploads/Image/88/52_819_picto_handicap_moteur.png;[32,32]
Etablissement;"Etablissement médicosocial";780690368;"Institut d'éducation motrice de Richebourg";"Handicap moteur";"22 route de Gressey";78550;Richebourg;78520;Yvelines;Ile-de-France;11;1.6364899873734;48.822658538818;http://opendata.onisep.fr/uploads/Image/88/52_819_picto_handicap_moteur.png;[32,32]
Etablissement;"Etablissement médicosocial";770690295;"Institut d'éducation motrice de Tournan-en-Brie";"Handicap moteur";"22 route de Coubert hameau de Villepatour";77224;Tournan-en-Brie;77470;Seine-et-Marne;Ile-de-France;11;2.7624800205231;48.740020751953;http://opendata.onisep.fr/uploads/Image/88/52_819_picto_handicap_moteur.png;[32,32]
Etablissement;"Etablissement médicosocial";760786061;"Institut d'éducation motrice Denis Cordonnier";"Handicap moteur";"1 rue Denis Cordonnier";76072;"Le Havre";76351;Seine-Maritime;Normandie;28;0.10155999660492;49.493419647217;http://opendata.onisep.fr/uploads/Image/88/52_819_picto_handicap_moteur.png;[32,32]
Etablissement;"Institut médico-éducatif";590816559;"Institut d'éducation motrice du Bord de Lys, antenne d'Armentières";"Handicap moteur";"51 rue Paul Bert";59280;Armentières;59017;Nord;Hauts-de-France;32;2.8890304;50.6872379;http://opendata.onisep.fr/uploads/Image/88/52_819_picto_handicap_moteur.png;[32,32]
Etablissement;"Etablissement médicosocial";510023773;"Institut d'éducation motrice Eric Degremont";"Handicap moteur";"2 rue Robert Lecomte";51510;Fagnières;51242;Marne;Grand-Est;44;4.3227300643921;48.96097946167;http://opendata.onisep.fr/uploads/Image/88/52_819_picto_handicap_moteur.png;[32,32]
Etablissement;"Etablissement médicosocial";140002544;"Institut d'éducation motrice François-Xavier Falala";"Handicap moteur";"160 impasse du Hamel";14200;Hérouville-Saint-Clair;14327;Calvados;Normandie;28;-0.31832000613213;49.206981658935;http://opendata.onisep.fr/uploads/Image/88/52_819_picto_handicap_moteur.png;[32,32]
Etablissement;"Etablissement médicosocial";720000371;"Institut d'éducation motrice Jean-Yves Guitton";"Handicap moteur";"rue de la Division Leclerc";72460;Savigné-l'Evêque;72329;Sarthe;"Pays de la Loire";52;0.29636999964714;48.075458526611;http://opendata.onisep.fr/uploads/Image/88/52_819_picto_handicap_moteur.png;[32,32]
Etablissement;"Etablissement médicosocial";350002150;"Institut d'éducation motrice la Clarté";"Handicap moteur";"26 bis rue Saint-Michel";35600;Redon;35236;Ille-et-Vilaine;Bretagne;53;-2.0862789154053;47.65018081665;http://opendata.onisep.fr/uploads/Image/88/52_819_picto_handicap_moteur.png;[32,32]
Etablissement;"Etablissement médicosocial";590785457;"Institut d'éducation motrice La Source de Hem";"Handicap moteur";"184 rue du Général Leclerc";59510;Hem;59299;Nord;Hauts-de-France;32;3.1752039;50.6548974;http://opendata.onisep.fr/uploads/Image/88/52_819_picto_handicap_moteur.png;[32,32]
Etablissement;"Etablissement médicosocial";640781126;"Institut d'éducation motrice le Hameau Bellevue";"Handicap moteur";"avenue de la Gare";64270;Salies-de-Béarn;64499;Pyrénées-Atlantiques;Nouvelle-Aquitaine;75;-0.92442899942398;43.469398498535;http://opendata.onisep.fr/uploads/Image/88/52_819_picto_handicap_moteur.png;[32,32]
Etablissement;"Etablissement médicosocial";930017405;"Institut d'éducation motrice les Chemins de Traverse";"Handicap moteur";"23 rue de l'Université";93160;Noisy-le-Grand;93051;Seine-Saint-Denis;Ile-de-France;11;2.5523800849915;48.849098205566;http://opendata.onisep.fr/uploads/Image/88/52_819_picto_handicap_moteur.png;[32,32]
Etablissement;"Etablissement médicosocial";670781665;"Institut d'éducation motrice les Iris";"Handicap moteur";"116 route de la Ganzau";67089;Strasbourg;67482;Bas-Rhin;Grand-Est;44;7.766900062561;48.558700561523;http://opendata.onisep.fr/uploads/Image/88/52_819_picto_handicap_moteur.png;[32,32]
Etablissement;"Etablissement médicosocial";920040607;"Institut d'éducation motrice Michel Arthuis";"Handicap moteur";"42 avenue du Roule";92200;Neuilly-sur-Seine;92051;Hauts-de-Seine;Ile-de-France;11;2.2699799537659;48.884780883789;http://opendata.onisep.fr/uploads/Image/88/52_819_picto_handicap_moteur.png;[32,32]
Etablissement;"Etablissement médicosocial";300012523;"Institut d'éducation motrice Montaury II";"Handicap moteur";"rue Montaury";30900;Nîmes;30189;Gard;Occitanie;76;4.34242;43.83297;http://opendata.onisep.fr/uploads/Image/88/52_819_picto_handicap_moteur.png;[32,32]
Etablissement;"Etablissement médicosocial";620112680;"Institut d'éducation motrice Pierre Cazin";"Handicap moteur";"94 rue du Général de Gaulle";62223;Anzin-Saint-Aubin;62037;Pas-de-Calais;Hauts-de-France;32;;;http://opendata.onisep.fr/uploads/Image/88/52_819_picto_handicap_moteur.png;[32,32]
Etablissement;"Etablissement médicosocial";900000118;"Institut d'éducation motrice Thérèse Bonnaymé";"Handicap moteur";"37 grande rue";90170;Etueffont;90041;Territoire-de-Belfort;Bourgogne-Franche-Comté;27;6.9232797622681;47.716339111328;http://opendata.onisep.fr/uploads/Image/88/52_819_picto_handicap_moteur.png;[32,32]
Etablissement;"Etablissement médicosocial";080002132;"Institut d'éducation psychomotrice de Montvillers";"Handicap moteur";"2 rue des Genêts";8140;Bazeilles;08053;Ardennes;Grand-Est;44;4.9832401275635;49.676040649414;http://opendata.onisep.fr/uploads/Image/88/52_819_picto_handicap_moteur.png;[32,32]
Etablissement;"Etablissement médicosocial";060791787;"Institut d'éducation sensorielle Clément Ader";"Handicap auditif";"2 boulevard des deux corniches";6000;Nice;06088;Alpes-Maritimes;"Provence-Alpes-Côte d'Azur";93;7.2722101211548;43.6989402771;http://opendata.onisep.fr/uploads/Image/08/51_780_picto_handicap_auditif.png;[32,32]
Etablissement;"Etablissement médicosocial";570019109;"Institut d'éducation sensorielle de Metz, antenne de Freyming-Merlebach";"Handicap auditif";"16 avenue Emile Huchet";57800;Freyming-Merlebach;57240;Moselle;Grand-Est;44;6.82190990448;49.146118164062;http://opendata.onisep.fr/uploads/Image/08/51_780_picto_handicap_auditif.png;[32,32]
Etablissement;"Etablissement médicosocial";520782160;"Institut d'éducation sensorielle Joseph Cressot";"Handicap auditif";"15 avenue Jean Mermoz";52000;Chaumont;52121;Haute-Marne;Grand-Est;44;5.14669;48.11555;http://opendata.onisep.fr/uploads/Image/08/51_780_picto_handicap_auditif.png;[32,32]
Etablissement;"Etablissement médicosocial";890971245;"Institut d'éducation sensorielle pour handicapés auditifs";"Handicap auditif";"19 rue Pierre et Marie Curie";89000;Auxerre;89024;Yonne;Bourgogne-Franche-Comté;27;3.5715999603272;47.79354095459;http://opendata.onisep.fr/uploads/Image/08/51_780_picto_handicap_auditif.png;[32,32]
Etablissement;"Etablissement médicosocial";370000366;"Institut de rééducation et d'éducation pour la communication, l'ouïe et la vue Beau Site";"Handicap visuel";"31 rue de la Loire";37075;Tours;37261;Indre-et-Loire;"Centre-Val de Loire";24;0.68923002481461;47.390441894531;http://opendata.onisep.fr/uploads/Image/28/53_852_picto_handicap_visuel.png;[32,32]
Etablissement;"Etablissement médicosocial";920690039;"Institut départemental Gustave Baguer";"Handicap auditif";"35 rue de Nanterre";92600;Asnières-sur-Seine;92004;Hauts-de-Seine;Ile-de-France;11;2.2890200614929;48.910301208496;http://opendata.onisep.fr/uploads/Image/08/51_780_picto_handicap_auditif.png;[32,32]
Etablissement;"Etablissement médicosocial";540000692;"Institut des jeunes sourds de la Malgrange";"Handicap auditif";"rue Joseph Piroux";54140;Jarville-la-Malgrange;54274;Meurthe-et-Moselle;Grand-Est;44;6.2024998664856;48.673221588135;http://opendata.onisep.fr/uploads/Image/08/51_780_picto_handicap_auditif.png;[32,32]
Etablissement;"Etablissement médicosocial";430000273;"Institut Marie Rivier";"Handicap auditif";"26 avenue d'Ours Mons";43000;"Le Puy-en-Velay";43157;Haute-Loire;Auvergne-Rhône-Alpes;84;3.889790058136;45.043678283691;http://opendata.onisep.fr/uploads/Image/08/51_780_picto_handicap_auditif.png;[32,32]
Etablissement;"Institut médico-éducatif";970406120;"Institut médico-éducatif et médico-social Raphael Babet";"Handicap moteur";"29 boulevard Lepneveu";97480;Saint-Joseph;97412;"La Réunion";"La Réunion";4;;;http://opendata.onisep.fr/uploads/Image/88/52_819_picto_handicap_moteur.png;[32,32]
Etablissement;"Etablissement médicosocial";740785274;"Institut médico-éducatif la Clef des Champs";"Handicap moteur";"129 rue de la Charrière";74140;Saint-Cergues;74229;Haute-Savoie;Auvergne-Rhône-Alpes;84;6.3181235;46.228235;http://opendata.onisep.fr/uploads/Image/88/52_819_picto_handicap_moteur.png;[32,32]
Etablissement;"Etablissement médicosocial";970406112;"Institut médico-social Maison Notre-Dame";"Handicap moteur";"36 bis rue de l'Eglise";97411;Saint-Paul;97415;"La Réunion";"La Réunion";4;;;http://opendata.onisep.fr/uploads/Image/88/52_819_picto_handicap_moteur.png;[32,32]
Etablissement;"Etablissement médicosocial";330780941;"Institut national de jeunes sourds de Bordeaux, antenne du Lot-et-Garonne";"Handicap auditif";"750 avenue du Docteur Jean Bru";47000;Agen;47001;Lot-et-Garonne;Nouvelle-Aquitaine;75;0.7136414;44.406542;http://opendata.onisep.fr/uploads/Image/08/51_780_picto_handicap_auditif.png;[32,32]
Etablissement;"Etablissement médicosocial";750710097;"Institut national des jeunes aveugles";"Handicap visuel";"56 boulevard des Invalides";75007;Paris;75100;Paris;Ile-de-France;11;2.3136999607086;48.856498718262;http://opendata.onisep.fr/uploads/Image/28/53_852_picto_handicap_visuel.png;[32,32]
Etablissement;"Etablissement médicosocial";030780340;"Institut pour jeunes aveugles les Charmettes";"Handicap visuel";"21 route de Bourgogne";3400;Yzeure;03321;Allier;Auvergne-Rhône-Alpes;84;3.353569984436;46.566291809082;http://opendata.onisep.fr/uploads/Image/28/53_852_picto_handicap_visuel.png;[32,32]
Etablissement;"Etablissement médicosocial";260000419;"Institut régional d'éducation et d'enseignement spécialisé, antenne de Valence";"Handicap auditif";"130 rue Jean Vilar";26000;Valence;26362;Drôme;Auvergne-Rhône-Alpes;84;4.91377;44.94268;http://opendata.onisep.fr/uploads/Image/08/51_780_picto_handicap_auditif.png;[32,32]
Etablissement;"Etablissement médicosocial";450000443;"Institut régional pour sourds et déficients auditifs de Saint-Jean-de-la-Ruelle";"Handicap auditif";"73 rue de Bagneaux";45144;Saint-Jean-de-la-Ruelle;45285;Loiret;"Centre-Val de Loire";24;;;http://opendata.onisep.fr/uploads/Image/08/51_780_picto_handicap_auditif.png;[32,32]
Etablissement;"Etablissement médicosocial";660780321;"La Perle Cerdane - le Joyau Cerdan";"Handicap moteur";"2 avenue du Carlit";66340;Osséja;66130;Pyrénées-Orientales;Occitanie;76;1.972143;42.4177641;http://opendata.onisep.fr/uploads/Image/88/52_819_picto_handicap_moteur.png;[32,32]
Etablissement;"Etablissement médicosocial";210780359;"Pôle sensoriel et moteur du Clos Chauveau";"Handicap visuel";"9 rue du Fort de la Motte Giron";21000;Dijon;21231;Côte-d'Or;Bourgogne-Franche-Comté;27;5.038959980011;47.322151184082;http://opendata.onisep.fr/uploads/Image/28/53_852_picto_handicap_visuel.png;[32,32]
Etablissement;"Etablissement médicosocial";210780359;"Pôle sensoriel et moteur du Clos Chauveau";"Handicap auditif";"9 rue du Fort de la Motte Giron";21000;Dijon;21231;Côte-d'Or;Bourgogne-Franche-Comté;27;5.038959980011;47.322151184082;http://opendata.onisep.fr/uploads/Image/08/51_780_picto_handicap_auditif.png;[32,32]
Service;"service d'éducation spéciale et de soins à domicile";980501050;"SAFEP/SSEFIS de Mamoudzou";"Handicap auditif";"résidence 3/5 le terre plein";97600;Mamoudzou;97611;Mayotte;Mayotte;6;45.232025;-12.777985;http://opendata.onisep.fr/uploads/Image/39/54_801_picto_handicap_auditif_inverse.png;[32,32]
Etablissement;"Etablissement médicosocial";530007301;"Section d'éducation motrice de Laval";"Handicap moteur";"46 rue de la Fuye";53000;Laval;53130;Mayenne;"Pays de la Loire";52;-0.7680190205574;48.071071624756;http://opendata.onisep.fr/uploads/Image/88/52_819_picto_handicap_moteur.png;[32,32]
Service;"service d'éducation spéciale et de soins à domicile";140021239;"Service d'accompagnement familial et d'éducation précoce de Caen";"Handicap visuel";"38 rue d'Hastings";14000;Caen;14118;Calvados;Normandie;28;-0.35662001371384;49.179759979248;http://opendata.onisep.fr/uploads/Image/8c/56_870_picto_handicap_visuel_inverse.png;[32,32]
Service;"service d'éducation spéciale et de soins à domicile";590044095;"Service d'accompagnement familial et d'éducation précoce de l'IJA de Lille";"Handicap visuel";"131 rue Royale";59000;Lille;59350;Nord;Hauts-de-France;32;3.0537634;50.645648;http://opendata.onisep.fr/uploads/Image/8c/56_870_picto_handicap_visuel_inverse.png;[32,32]
Service;"service d'éducation spéciale et de soins à domicile";590817078;"Service d'accompagnement familial et d'éducation précoce de l'IRPA de Ronchin";"Handicap auditif";"place de l'Abbé de l'Epée";59790;Ronchin;59507;Nord;Hauts-de-France;32;3.0775001049042;50.605579376221;http://opendata.onisep.fr/uploads/Image/39/54_801_picto_handicap_auditif_inverse.png;[32,32]
Service;"service d'éducation spéciale et de soins à domicile";120006226;"Service d'accompagnement familial et d'éducation précoce du CDDS de Rodez";"Handicap auditif";"15 boulevard François Fabié";12000;Rodez;12202;Aveyron;Occitanie;76;2.5721299648285;44.351039886475;http://opendata.onisep.fr/uploads/Image/39/54_801_picto_handicap_auditif_inverse.png;[32,32]
Service;"service d'éducation spéciale et de soins à domicile";750819567;"Service d'accompagnement familial et d'éducation précoce du CODALI";"Handicap auditif";"47 rue de Javel";75015;Paris;75100;Paris;Ile-de-France;11;2.2976999282837;48.844501495361;http://opendata.onisep.fr/uploads/Image/39/54_801_picto_handicap_auditif_inverse.png;[32,32]
Service;"service d'éducation spéciale et de soins à domicile";590817052;"Service d'accompagnement familial et d'éducation précoce la Pépinière";"Handicap visuel";"31 avenue Pierre Mauroy";59120;Loos;59360;Nord;Hauts-de-France;32;3.0146899223328;50.614910125732;http://opendata.onisep.fr/uploads/Image/8c/56_870_picto_handicap_visuel_inverse.png;[32,32]
Service;"service d'éducation spéciale et de soins à domicile";770014504;"Service d'aide à l'acquisition de l'autonomie et à l'intégration scolaire Clin d'Oeil 77";"Handicap visuel";"912 avenue Charles Prieur";77190;Dammarie-les-Lys;77152;Seine-et-Marne;Ile-de-France;11;2.6536400318146;48.527481079102;http://opendata.onisep.fr/uploads/Image/8c/56_870_picto_handicap_visuel_inverse.png;[32,32]
Service;"service d'éducation spéciale et de soins à domicile";210010542;"Service d'aide à l'acquisition de l'autonomie et à l'intégration scolaire Clos Chauveau";"Handicap visuel";"9 rue du Fort de la Motte Giron";21000;Dijon;21231;Côte-d'Or;Bourgogne-Franche-Comté;27;5.038959980011;47.322151184082;http://opendata.onisep.fr/uploads/Image/8c/56_870_picto_handicap_visuel_inverse.png;[32,32]
Service;"service d'éducation spéciale et de soins à domicile";100008960;"Service d'aide à l'acquisition de l'autonomie et à l'intégration scolaire de l'IES Chanteloup";"Handicap visuel";"11 rue de Chanteloup";10300;Sainte-Savine;10362;Aube;Grand-Est;44;4.04984998703;48.293418884277;http://opendata.onisep.fr/uploads/Image/8c/56_870_picto_handicap_visuel_inverse.png;[32,32]
Service;"service d'éducation spéciale et de soins à domicile";590044095;"Service d'aide à l'acquisition de l'autonomie et à l'intégration scolaire de l'IJA de Lille";"Handicap visuel";"131 rue Royale";59000;Lille;59350;Nord;Hauts-de-France;32;3.0537634;50.645648;http://opendata.onisep.fr/uploads/Image/8c/56_870_picto_handicap_visuel_inverse.png;[32,32]
Service;"service d'éducation spéciale et de soins à domicile";370101164;"Service d'aide à l'acquisition de l'autonomie et à l'intégration scolaire de l'IRECOV Beau Site";"Handicap visuel";"31 rue de la Loire";37075;Tours;37261;Indre-et-Loire;"Centre-Val de Loire";24;0.68923002481461;47.390441894531;http://opendata.onisep.fr/uploads/Image/8c/56_870_picto_handicap_visuel_inverse.png;[32,32]
Service;"service d'éducation spéciale et de soins à domicile";340792241;"Service d'aide à l'acquisition de l'autonomie et à l'intégration scolaire de Montpellier";"Handicap visuel";"420 allée Henri II de Montmorency";34000;Montpellier;34172;Hérault;Occitanie;76;3.88839;43.61015;http://opendata.onisep.fr/uploads/Image/8c/56_870_picto_handicap_visuel_inverse.png;[32,32]
Service;"service d'éducation spéciale et de soins à domicile";220013734;"Service d'aide à l'acquisition de l'autonomie et à l'intégration scolaire de Saint-Brieuc";"Handicap visuel";"16 rue de Brest";22000;Saint-Brieuc;22278;Côtes-d'Armor;Bretagne;53;-2.7600290775299;48.509140014648;http://opendata.onisep.fr/uploads/Image/8c/56_870_picto_handicap_visuel_inverse.png;[32,32]
Service;"service d'éducation spéciale et de soins à domicile";830016507;"Service d'aide à l'acquisition de l'autonomie et à l'intégration scolaire de Toulon";"Handicap visuel";"rue Jean-Philippe Rameau";83000;Toulon;83137;Var;"Provence-Alpes-Côte d'Azur";93;5.9303002357483;43.12532043457;http://opendata.onisep.fr/uploads/Image/8c/56_870_picto_handicap_visuel_inverse.png;[32,32]
Service;"service d'éducation spéciale et de soins à domicile";630010221;"Service d'aide à l'acquisition de l'autonomie et à l'intégration scolaire du CRDV Clermont-Ferrand";"Handicap visuel";"30 rue Sainte-Rose";63000;Clermont-Ferrand;63113;Puy-de-Dôme;Auvergne-Rhône-Alpes;84;3.0823900699616;45.776931762695;http://opendata.onisep.fr/uploads/Image/8c/56_870_picto_handicap_visuel_inverse.png;[32,32]
Service;"service d'éducation spéciale et de soins à domicile";540009933;"Service d'aide à l'acquisition de l'autonomie et à la scolarisation  du CEDV de Nancy";"Handicap visuel";"8 rue de Santifontaine";54000;Nancy;54395;Meurthe-et-Moselle;Grand-Est;44;6.1547999382019;48.702499389648;http://opendata.onisep.fr/uploads/Image/8c/56_870_picto_handicap_visuel_inverse.png;[32,32]
